     2.10           OBSERVATION DATA    G (GPS)             RINEX VERSION / TYPE
teqc  2002Mar14     Buddinge GPS        20050921 00:03:57UTCPGM / RUN BY / DATE
Linux 2.0.36|Pentium II|gcc -static|Linux|486/DX+           COMMENT
teqc  2002Mar14     Buddinge GPS        20050921 00:01:39UTCCOMMENT
teqc  2002Mar14                         20050920 00:59:48UTCCOMMENT
MSWin2000|IAx86-PII|wcl386 11.0|MSWin95/98/NT/2000|486/DX+  COMMENT
BIT 2 OF LLI FLAGS DATA COLLECTED UNDER A/S CONDITION       COMMENT
BUDP                                                        MARKER NAME
10101M003                                                   MARKER NUMBER
KMS                 KMS                                     OBSERVER / AGENCY
11106               ASHTECH UZ-12       CJ00/0A16           REC # / TYPE / VERS
95104               ASH701941.B     UNAV                    ANT # / TYPE
  3513638.5600   778956.1840  5248216.2480                  APPROX POSITION XYZ
        0.0000        0.0000        0.0000                  ANTENNA: DELTA H/E/N
     1     1                                                WAVELENGTH FACT L1/2
     7    L1    L2    C1    P2    P1    D1    D2            # / TYPES OF OBSERV
    30.0000                                                 INTERVAL
APPROX POSITION Coordinates are ETRS89                      COMMENT
 SNR is mapped to RINEX snr flag value [1-9]                COMMENT
  L1: 1 -> 1;  90 -> 5; 210 -> 9                            COMMENT
  L2: 1 -> 1; 150 -> 5; 250 -> 9                            COMMENT
Forced Modulo Decimation to 30 seconds                      COMMENT
  2005     9    20     0     0    0.0000000     GPS         TIME OF FIRST OBS
                                                            END OF HEADER
 05  9 20  0  0  0.0000000  0  9G28G11G 1G 3G18G19G14G 9G22
 -10849689.64643  -8443894.28242  23734084.4404   23734085.8264   23734083.3254
       842.0244        656.1214
 -22087642.24743 -17159590.47942  21537750.0344   21537752.2884   21537750.0304
      2256.4524       1758.2704
  -9827878.47043  -7608777.07242  23937384.5094   23937388.0134   23937383.6684
      3479.0724       2710.9714
 -12470856.95443  -9672543.21342  23143394.5854   23143399.2634   23143395.0154
     -3450.8784      -2688.9794
  -3543912.08843  -2721216.28442  25307542.6444   25307543.2804   25307541.7934
     -3550.7484      -2766.8124
 -23720968.02143 -18414094.56242  21068225.1464   21068225.9204   21068224.2924
     -1553.4524      -1210.4854
 -14566148.81043 -11293525.79942  22451274.6214   22451277.0564   22451273.7284
      2096.6334       1633.7604
  -3641287.37643  -2805272.78242  24717353.9344   24717355.3484   24717354.1754
      1091.9434        850.8614
 -17757580.44243 -13785144.24642  22385420.6834   22385421.4274   22385420.2804
     -2568.1404      -2001.1504
 05  9 20  0  0 30.0000000  0  9G28G11G 1G 3G18G19G14G 9G22
 -10874648.02543  -8463342.36142  23729334.6364   23729337.0784   23729333.6984
       822.4484        640.8474
 -22155156.06643 -17212198.64542  21524902.8134   21524905.2884   21524902.8334
      2244.9584       1749.3174
  -9932132.68043  -7690014.08142  23917545.6844   23917548.7214   23917545.0454
      3471.9194       2705.3944
 -12367193.50243  -9591766.51842  23163122.6774   23163125.8264   23163122.0724
     -3459.2884      -2695.5254
  -3437353.88743  -2638183.90942  25327819.3714   25327819.1174   25327817.5634
     -3552.9704      -2768.5444
 -23674090.27843 -18377566.46542  21077145.8384   21077146.7444   21077144.8514
     -1571.1654      -1224.2794
 -14628777.95843 -11342327.71942  22439357.9424   22439358.3044   22439356.1514
      2079.1154       1620.1004
  -3673720.92643  -2830545.64642  24711181.9904   24711184.6784   24711180.5264
      1071.0914        834.6124
 -17680352.94443 -13724966.98142  22400116.2904   22400117.6174   22400116.6184
     -2579.7684      -2010.1964
 05  9 20  0  1  0.0000000  0  9G28G11G 1G 3G18G19G14G 9G22
 -10899036.09343  -8482346.05642  23724693.8144   23724695.7474   23724692.2144
       803.1134        625.8004
 -22222344.51243 -17264553.27442  21512117.8384   21512119.3774   21512117.7004
      2233.9294       1740.7204
 -10036191.55243  -7771098.88742  23897744.4494   23897746.9904   23897744.0204
      3465.2244       2700.1914
 -12263303.32943  -9510813.14442  23182891.1674   23182894.7054   23182890.6014
     -3467.0694      -2701.6224
  -3330719.87543  -2555092.45342  25348111.1974   25348112.0184   25348109.4904
     -3555.9494      -2770.8774
 -23626700.18143 -18340639.12742  21086164.4354   21086164.6124   21086163.0334
     -1588.4904      -1237.7844
 -14690899.42643 -11390734.03442  22427534.8644   22427537.1514   22427534.7044
      2061.9644       1606.7354
  -3705552.78043  -2855349.68242  24705124.1934   24705127.1774   24705124.5304
      1050.2774        818.4044
 -17602802.40543 -13664537.98342  22414874.1544   22414874.3654   22414874.0924
     -2590.5354      -2018.5934
 05  9 20  0  1 30.0000000  0  9G28G11G 1G 3G18G19G14G 9G22
 -10922853.30043  -8500904.93942  23720160.9364   23720164.1974   23720160.0564
       784.7204        611.4684
 -22289206.24643 -17316653.32542  21499394.5084   21499396.2354   21499394.2694
      2223.6184       1732.6904
 -10140052.16343  -7852029.21342  23877980.6384   23877982.4194   23877979.4054
      3459.0324       2695.3534
 -12159188.39843  -9429684.64642  23202704.6754   23202708.1854   23202703.5954
     -3473.9074      -2706.9274
  -3224011.75543  -2471943.28942  25368417.0704   25368418.2744   25368416.6854
     -3557.6734      -2772.1994
 -23578798.87043 -18303313.44042  21095279.2824   21095280.0454   21095278.2264
     -1604.6844      -1250.3954
 -14752510.92143 -11438742.97742  22415810.6874   22415812.9994   22415810.2284
      2045.6084       1593.9894
  -3736781.47943  -2879683.74342  24699180.8374   24699183.7044   24699178.5454
      1031.0574        803.4274
 -17524929.84943 -13603858.06742  22429692.5914   22429693.1424   22429692.2244
     -2600.9984      -2026.7624
 05  9 20  0  2  0.0000000  0  9G28G11G 1G 3G18G19G14G 9G22
 -10946099.04443  -8519018.51742  23715738.1974   23715738.5964   23715737.3254
       765.4794        596.5004
 -22355739.93643 -17368497.74842  21486733.3794   21486735.1844   21486732.7374
      2212.4864       1724.0164
 -10243711.52743  -7932802.71142  23858252.5634   23858258.2244   23858252.1284
      3451.9454       2689.8104
 -12054851.22843  -9348382.96642  23222558.1484   23222563.0494   23222558.1124
     -3481.4284      -2712.7744
  -3117230.96543  -2388737.49842  25388735.7574   25388737.9744   25388735.2954
     -3560.4224      -2774.3524
 -23530387.32543 -18265590.17042  21104491.7364   21104492.7924   21104490.3794
     -1621.9564      -1263.8544
 -14813610.02543 -11486352.65142  22404184.1724   22404186.2854   22404183.8814
      2028.1284       1580.3574
  -3767405.24543  -2903546.42742  24693355.5044   24693356.2414   24693354.9134
      1010.8864        787.7004
 -17446738.21343 -13542929.52142  22444572.8174   22444572.3674   22444571.8824
     -2611.5114      -2034.9434
 05  9 20  0  2 30.0000000  0  9G28G11G 1G 3G18G19G14G 9G22
 -10968772.28643  -8536685.96742  23711423.6554   23711426.5174   23711422.7184
       746.2924        581.5194
 -22421944.11943 -17420085.42042  21474135.1464   21474137.0334   21474134.7974
      2201.3394       1715.3234
 -10347166.66043  -8013417.07642  23838565.6544   23838570.6124   23838566.1424
      3445.1794       2684.5414
 -11950293.96143  -9266909.79342  23242455.2854   23242458.6444   23242454.4104
     -3488.8504      -2718.5914
  -3010379.90943  -2305476.99842  25409068.2094   25409068.9744   25409067.3714
     -3562.5834      -2776.0274
 -23481466.17643 -18227469.80942  21113801.0704   21113801.5674   21113799.9374
     -1639.1954      -1277.3044
 -14874194.53343 -11533561.33342  22392655.8874   22392657.9754   22392654.7294
      2010.9084       1566.9434
  -3797422.45843  -2926936.45742  24687640.1794   24687643.7974   24687639.9814
       990.2594        771.6254
 -17368228.98843 -13481753.50342  22459511.2964   22459512.2714   22459511.2654
     -2622.2044      -2043.2794
 05  9 20  0  3  0.0000000  0 10G28G11G 1G 3G20G18G19G14G 9G22
 -10990872.68943  -8553907.05942  23707217.8284   23707220.9244   23707217.6004
       727.0634        566.5834
 -22487817.75743 -17471415.51542  21461600.0914   21461601.5604   21461599.3894
      2190.1494       1706.6154
 -10450414.79943  -8093870.14742  23818918.7664   23818922.0894   23818918.5094
      3437.9404       2678.8954
 -11845518.59343  -9185266.66342  23262392.5394   23262396.9924   23262393.2054
     -3496.3304      -2724.3854
  -1691755.08943  -1267995.04742  25453259.8034   25453261.6744   25453258.5844
      3833.0864       2986.8244
  -2903460.20843  -2222162.92042  25429413.5904   25429416.4844   25429415.8854
     -3565.3564      -2778.2024
 -23432036.59543 -18188953.26342  21123207.1654   21123207.8284   21123206.2094
     -1656.2684      -1290.5924
 -14934262.11843 -11580367.22842  22381224.4364   22381227.3714   22381224.2334
      1993.4294       1553.3124
  -3826831.94443  -2949852.94942  24682045.6064   24682047.5294   24682045.6174
       969.5564        755.5054
 -17289405.74743 -13420332.80142  22474511.0384   22474511.7814   22474511.6454
     -2632.8584      -2051.5824
 05  9 20  0  3 30.0000000  0  9G28G11G 1G 3G20G19G14G 9G22
 -11012399.36343  -8570681.08842  23703122.1704   23703122.7574   23703121.2634
       707.7354        551.4864
 -22553359.20543 -17522486.77342  21449128.0314   21449129.5764   21449127.3704
      2178.8904       1697.8494
 -10553452.97543  -8174159.62142  23799310.9894   23799315.3794   23799311.5134
      3430.8814       2673.4414
 -11740527.44643  -9103455.39642  23282372.8624   23282376.1644   23282372.4684
     -3503.4694      -2729.9664
  -1806729.17043  -1357585.25742  25431380.4874   25431383.1204   25431380.2534
      3831.2304       2985.3774
 -23382100.40743 -18150041.96142  21132710.0654   21132710.7984   21132709.0484
     -1673.2924      -1303.8594
 -14993811.14143 -11626769.04642  22369892.5494   22369895.0884   22369892.0234
      1976.1344       1539.8494
  -3855632.07243  -2972294.62542  24676565.8554   24676567.0114   24676564.3364
       949.5204        739.8864
 -17210269.59143 -13358668.26242  22489570.1654   22489571.2414   22489570.8154
     -2643.3404      -2059.7424
 05  9 20  0  4  0.0000000  0  9G28G11G 1G 3G20G19G14G 9G22
 -11033351.33643  -8587007.29142  23699134.1214   23699136.9674   23699132.8654
       688.8564        536.7814
 -22618567.20843 -17573298.19942  21436719.4414   21436720.8704   21436718.9024
      2167.9934       1689.3404
 -10656278.17443  -8254283.14142  23779744.7404   23779749.0564   23779745.1214
      3423.7764       2667.8704
 -11635322.82643  -9021477.78842  23302392.9014   23302396.7934   23302391.8684
     -3510.4214      -2735.3994
  -1921652.18643  -1447135.68442  25409510.4914   25409517.1504   25409510.3004
      3830.0104       2984.4294
 -23331658.03643 -18110736.22842  21142308.6174   21142309.3494   21142307.4984
     -1689.7764      -1316.7184
 -15052839.08443 -11672764.82142  22358661.3384   22358661.8204   22358659.7544
      1958.8584       1526.3804
  -3883821.41943  -2994260.35842  24671200.4494   24671203.8814   24671199.5414
       929.5044        724.2854
 -17130822.00543 -13296761.05042  22504688.9234   22504689.1674   22504688.8054
     -2653.4034      -2067.6024
 05  9 20  0  4 30.0000000  0  9G28G11G 1G 3G20G19G14G 9G22
 -11053728.54243  -8602885.64742  23695256.4484   23695257.6634   23695255.1094
       669.2584        521.4944
 -22683440.08043 -17623848.48442  21424374.4724   21424375.7544   21424373.7344
      2156.5324       1680.4184
 -10758887.61243  -8334238.52342  23760219.3384   23760223.4914   23760219.5874
      3416.2674       2662.0364
 -11529906.95143  -8939335.57942  23322452.0654   23322456.8594   23322452.0564
     -3517.6354      -2741.0164
  -2036522.62943  -1536645.08542  25387653.4944   25387656.1294   25387651.3464
      3827.7504       2982.6534
 -23280710.70943 -18071037.02242  21152003.4014   21152004.4554   21152002.2694
     -1706.9934      -1330.1214
 -15111343.58643 -11718352.72742  22347527.6734   22347529.4094   22347526.8614
      1941.1144       1512.5654
  -3911398.68843  -3015749.12942  24665953.9094   24665955.9914   24665952.9594
       908.8374        708.1794
 -17051065.72643 -13234613.29842  22519866.1824   22519866.0144   22519865.6364
     -2664.0854      -2075.9124
 05  9 20  0  5  0.0000000  0  9G28G11G 1G 3G20G19G14G 9G22
 -11073529.95643  -8618315.33642  23691487.5944   23691491.3884   23691486.6734
       650.4634        506.8454
 -22747976.69243 -17674136.74542  21412093.1214   21412094.9574   21412093.1064
      2145.6744       1671.9624
 -10861278.04843  -8414023.22142  23740734.8914   23740738.8364   23740733.9004
      3409.4434       2656.7484
 -11424281.96143  -8857030.41142  23342552.3604   23342556.0484   23342552.2734
     -3524.2344      -2746.1334
  -2151338.78543  -1626112.19142  25365804.4074   25365805.9074   25365803.1244
      3826.4644       2981.6604
 -23229259.35643 -18030945.06942  21161794.3064   21161795.1874   21161793.2424
     -1723.3324      -1342.8464
 -15169322.76743 -11763531.29442  22336494.4104   22336497.5024   22336493.9274
      1923.9934       1499.2234
  -3938362.24643  -3036759.70542  24660821.6234   24660825.0914   24660822.0204
       888.8884        692.6444
 -16971003.07943 -13172226.81842  22535101.3874   22535102.4924   22535100.8894
     -2673.6784      -2083.3864
 05  9 20  0  5 30.0000000  0  9G28G11G 1G 3G20G19G14G 9G22
 -11092755.06743  -8633295.93642  23687830.4864   23687831.3734   23687829.0084
       631.6554        492.2074
 -22812175.62444 -17724161.87742  21399876.5924   21399878.0894   21399876.0234
      2134.8144       1663.4924
 -10963446.68643  -8493635.12942  23721292.4834   23721296.0644   23721290.9184
      3402.5724       2651.3394
 -11318450.12743  -8774564.04442  23362691.2694   23362694.3614   23362690.3784
     -3530.7394      -2751.2354
  -2266098.85843  -1715535.58642  25343965.1214   25343970.4264   25343964.9864
      3825.1424       2980.6304
 -23177304.97343 -17990461.14542  21171681.4614   21171681.9054   21171680.2724
     -1739.5914      -1355.5184
 -15226774.28843 -11808298.68442  22325561.4674   22325564.8574   22325561.2774
      1906.8074       1485.8344
  -3964710.79143  -3057291.03942  24655807.2704   24655810.8024   24655808.4054
       868.1464        676.4774
 -16890635.64743 -13109602.85542  22550394.9714   22550395.8984   22550394.7044
     -2683.5334      -2091.0654
 05  9 20  0  6  0.0000000  0  9G28G11G 1G 3G20G19G14G 9G22
 -11111403.97243  -8647827.54642  23684281.1904   23684283.6214   23684279.6584
       612.2684        477.1124
 -22876035.76043 -17773923.02142  21387724.0544   21387726.6084   21387723.5814
      2123.2144       1654.4584
 -11065390.81143  -8573072.10542  23701892.8094   23701897.2454   23701893.4424
      3394.5334       2645.1144
 -11212413.77543  -8691938.31842  23382869.8644   23382874.0774   23382868.2324
     -3537.6164      -2756.5814
  -2380801.28443  -1804914.06642  25322138.8784   25322142.5044   25322137.4054
      3822.7734       2978.7864
 -23124849.00843 -17949586.38142  21181663.0194   21181663.8564   21181662.3244
     -1756.6004      -1368.7784
 -15283696.12843 -11852653.33842  22314729.0934   22314732.0914   22314728.4484
      1888.8614       1471.8444
  -3990443.26943  -3077342.32142  24650910.5784   24650913.4714   24650910.8994
       847.5944        660.4714
 -16809966.21943 -13046743.56042  22565745.4074   22565745.9914   22565745.0104
     -2693.6484      -2098.9424
 05  9 20  0  6 30.0000000  0  9G28G11G 1G 3G20G19G14G 9G22
 -11129475.83343  -8661909.51642  23680842.2534   23680843.0184   23680841.6934
       592.6314        461.7544
 -22939555.45543 -17823418.88542  21375637.2404   21375638.5464   21375636.5504
      2111.4294       1645.2674
 -11167107.48043  -8652331.81842  23682536.3364   23682540.7474   23682535.9094
      3386.3954       2638.7404
 -11106174.93843  -8609154.84542  23403085.9684   23403091.1014   23403085.8144
     -3544.7804      -2762.1684
  -2495444.81943  -1894246.66242  25300323.1334   25300327.5584   25300321.5484
      3820.1374       2976.7404
 -23071892.88943 -17908321.88842  21191740.7894   21191740.9614   21191739.2644
     -1773.7874      -1382.1764
 -15340086.20143 -11896593.64442  22303998.7874   22304001.2794   22303998.1824
      1870.6024       1457.6084
  -4015558.10243  -3096912.31542  24646132.9094   24646135.2364   24646131.2594
       826.4194        643.9654
 -16728996.62943 -12983650.36842  22581153.4364   22581154.6124   22581153.1014
     -2704.2974      -2107.2524
 05  9 20  0  7  0.0000000  0  9G28G11G 1G 3G20G19G14G 9G22
 -11146969.42743  -8675540.90442  23677512.7874   23677514.3024   23677511.8504
       573.3794        446.7704
 -23002733.44243 -17872648.47542  21363614.7864   21363616.3834   21363614.1194
      2100.1464       1636.4694
 -11268593.59343  -8731411.87642  23663225.6654   23663229.1394   23663224.2274
      3378.8724       2632.8904
 -10999736.01843  -8526215.45242  23423341.4104   23423344.5084   23423340.2774
     -3551.3244      -2767.2814
  -2610027.70143  -1983531.99342  25278517.8304   25278522.1634   25278516.3674
      3818.3264       2975.3124
 -23018437.15443 -17866668.07642  21201912.9984   21201913.4414   21201911.8964
     -1790.2754      -1395.0244
 -15395942.39443 -11940117.92742  22293370.0724   22293372.0574   22293369.4224
      1852.9814       1443.8604
  -4040054.19043  -3116000.17342  24641470.4374   24641470.8014   24641469.3174
       805.7254        627.8374
 -16647728.69643 -12920324.70942  22596617.8574   22596618.5834   22596617.6114
     -2713.9254      -2114.7714
 05  9 20  0  7 30.0000000  0  9G28G11G 1G 3G20G19G14G 9G22
 -11163884.82743  -8688721.73942  23674294.0064   23674295.0654   23674294.0934
       554.4414        432.0374
 -23065568.23243 -17921610.64742  21351657.7784   21351659.1514   21351657.4104
      2089.0014       1627.7984
 -11369846.32143  -8810310.08542  23643956.9014   23643962.3474   23643955.9584
      3371.4304       2627.1104
 -10893099.09543  -8443121.75842  23443632.9614   23443636.3194   23443632.5204
     -3557.5584      -2772.1264
  -2724548.31843  -2072768.80542  25256726.1604   25256728.4414   25256723.6484
      3816.4634       2973.8764
 -22964483.59943 -17824626.36242  21212180.0644   21212180.2914   21212178.8554
     -1806.5594      -1407.6984
 -15451262.64343 -11983224.58842  22282842.1874   22282844.8934   22282841.8284
      1835.3024       1430.1144
  -4063930.26943  -3134604.92242  24636926.7414   24636930.6534   24636926.4254
       785.5614        612.1254
 -16566164.98843 -12856768.57542  22612139.7864   22612139.7854   22612139.3094
     -2723.3874      -2122.1124
 05  9 20  0  8  0.0000000  0  9G28G11G 1G 3G20G19G14G 9G22
 -11180221.59043  -8701451.68342  23671185.5044   23671188.3624   23671185.0254
       535.3834        417.1794
 -23128058.71243 -17970304.52242  21339766.1374   21339767.7294   21339765.5504
      2077.5634       1618.8814
 -11470862.58043  -8889024.04542  23624734.4814   23624739.6584   23624733.8744
      3363.5524       2620.9654
 -10786266.45643  -8359875.54642  23463961.9364   23463965.6874   23463961.2574
     -3563.9754      -2777.1084
  -2839005.03443  -2161955.82742  25234942.6194   25234949.4054   25234944.1084
      3814.9904       2972.7294
 -22910032.84143 -17782197.21642  21222541.6914   21222542.2234   21222540.5954
     -1822.9314      -1420.4654
 -15506044.86843 -12025912.02242  22272418.5114   22272420.0464   22272418.3444
      1817.4284       1416.1674
  -4087185.05443  -3152725.54142  24632500.8994   24632504.0434   24632502.1094
       764.9864        596.0954
 -16484307.46543 -12792983.49042  22627716.5444   22627717.3124   22627716.0944
     -2733.0544      -2129.6464
 05  9 20  0  9  0.0000000  0 10G28G11G 1G 3G20G19G14G 9G22G31
 -11211156.80443  -8725557.05742  23665300.2684   23665301.0224   23665299.3844
       495.9584        386.4414
 -23252000.50843 -18066882.53542  21316180.5514   21316181.9754   21316180.1514
      2053.7804       1600.3454
 -11672174.07443  -9045890.09142  23586425.7964   23586429.0754   23586426.9654
      3346.7924       2607.8944
 -10572023.18043  -8192932.79642  23504732.2854   23504735.7444   23504731.7434
     -3577.4414      -2787.6334
  -3067720.23443  -2340175.42642  25191421.4014   25191426.8244   25191419.6594
      3809.0414       2968.0844
 -22799645.78443 -17696181.35142  21243547.3354   21243548.1834   21243545.9984
     -1856.5304      -1446.6464
 -15613986.74343 -12110022.53042  22251877.0754   22251879.2984   22251876.7584
      1780.4974       1387.3914
  -4131825.57043  -3187510.34942  24624007.8234   24624008.3954   24624007.2614
       722.8354        563.2444
 -16319718.97043 -12664732.72142  22659036.8884   22659036.9174   22659036.4984
     -2753.1014      -2145.2894
   -130050.59343    -95674.62242  24400154.4504   24400157.9254   24400154.7474
      3552.9314       2768.5184
 05  9 20  0  9 30.0000000  0 10G28G11G 1G 3G20G19G14G 9G22G31
 -11225754.47743  -8736931.85342  23662521.2414   23662521.9254   23662520.6164
       476.7984        371.5094
 -23313449.28844 -18114764.69642  21304487.4194   21304489.0374   21304487.1644
      2042.3954       1591.4704
 -11772463.48543  -9124037.64842  23567342.2264   23567345.9074   23567341.9744
      3338.6494       2601.5364
 -10464616.83443  -8109239.54542  23525170.3734   23525174.5164   23525170.3064
     -3583.4114      -2792.2664
  -3181975.62143  -2429205.59742  25169679.2384   25169682.7014   25169677.0604
      3807.6994       2967.0264
 -22743711.93443 -17652596.54142  21254190.8884   21254192.2704   21254190.0664
     -1872.7454      -1459.2784
 -15667142.98843 -12151442.96542  22241761.7064   22241764.1414   22241760.9184
      1762.6324       1373.4834
  -4153209.15243  -3204172.87742  24619937.2634   24619941.0374   24619936.6774
       702.3584        547.2844
 -16236991.58843 -12600269.82342  22674778.7964   22674779.2554   22674778.5364
     -2762.4364      -2152.5584
   -236531.99743   -178647.17942  24379891.2084   24379893.7954   24379890.9084
      3545.3894       2762.6404
 05  9 20  0 10  0.0000000  0 10G28G11G 1G 3G20G19G14G 9G22G31
 -11239772.11743  -8747854.71542  23659853.6914   23659855.9794   23659854.3264
       458.8704        357.6054
 -23374548.42843 -18162374.40642  21292860.5364   21292862.5464   21292860.2854
      2032.0544       1583.4174
 -11872504.91643  -9201991.99142  23548304.8974   23548308.1464   23548304.0714
      3331.8754       2596.2344
 -10357023.90943  -8025400.91442  23545644.5334   23545648.7534   23545643.5214
     -3588.4024      -2796.1844
  -3296160.30943  -2518180.59042  25147951.7924   25147951.9224   25147949.5314
      3806.0374       2965.7344
 -22687286.27843 -17608628.51542  21264928.5094   21264929.7104   21264927.6884
     -1887.7784      -1470.9954
 -15719753.33343 -12192438.02042  22231750.3124   22231753.2564   22231749.7054
      1745.8344       1360.4124
  -4173966.79343  -3220347.67942  24615987.9344   24615990.5404   24615987.0524
       682.7984        532.0544
 -16153979.70543 -12535585.23842  22690576.0804   22690576.5534   22690575.7974
     -2770.5064      -2158.8134
   -342778.82643   -261436.93842  24359673.1724   24359676.0434   24359672.4414
      3538.9354       2757.6144
 05  9 20  0 10 30.0000000  0 10G28G11G 1G 3G20G19G14G 9G22G31
 -11253208.99143  -8758325.00142  23657297.1064   23657299.1164   23657295.4204
       438.7914        341.9264
 -23435296.19944 -18209710.33042  21281301.0764   21281302.4024   21281300.4164
      2019.6994       1573.7904
 -11972295.27643  -9279750.68842  23529314.6654   23529318.2344   23529315.8464
      3322.7984       2589.2074
 -10249246.33743  -7941418.41342  23566153.0694   23566157.1894   23566153.8484
     -3594.9774      -2801.2954
  -3410273.31343  -2607099.79242  25126234.3714   25126238.9034   25126234.1784
      3802.7704       2963.1954
 -22630369.71443 -17564277.95942  21275759.8874   21275760.2324   21275758.8064
     -1904.7194      -1484.1864
 -15771815.40143 -12233005.85242  22221843.7514   22221845.4764   22221843.0474
      1726.8214       1345.5744
  -4194097.25943  -3236033.76942  24612156.3594   24612160.4144   24612156.0634
       661.1074        515.1454
 -16070684.49643 -12470679.89642  22706425.8654   22706426.7884   22706426.2084
     -2780.6144      -2166.7014
   -448787.91143   -344041.39142  24339499.7744   24339503.5854   24339500.3694
      3530.4244       2750.9844
 05  9 20  0 11  0.0000000  0 10G28G11G 1G 3G20G19G14G 9G22G31
 -11266064.61543  -8768342.37842  23654849.8164   23654853.1794   23654849.2294
       418.4954        326.0994
 -23495691.54643 -18256771.62942  21269808.0424   21269809.5474   21269807.4864
      2006.8884       1563.8044
 -12071831.69943  -9357311.51442  23510373.2694   23510377.4624   23510371.7144
      3313.3044       2581.8114
 -10141286.46443  -7857293.86242  23586698.8284   23586702.5234   23586697.2244
     -3602.1334      -2806.8694
  -3524313.00043  -2695961.80542  25104534.1684   25104538.4844   25104534.8934
      3799.6154       2960.7394
 -22572963.39443 -17519545.77442  21286684.2774   21286684.3524   21286682.6534
     -1922.0844      -1497.7304
 -15823327.77843 -12273145.35142  22212041.1904   22212043.0274   22212040.8144
      1707.5274       1330.5354
  -4213599.49043  -3251230.32042  24608446.2694   24608449.3564   24608447.6704
       639.3804        498.2154
 -15987107.80243 -12405555.19342  22722330.3834   22722330.4514   22722330.1384
     -2790.9524      -2174.7634
   -554557.10443   -426458.94542  24319373.8944   24319376.6904   24319373.8234
      3521.2504       2743.8334
 05  9 20  0 11 30.0000000  0 10G28G11G 1G 3G20G19G14G 9G22G31
 -11278338.70343  -8777906.61842  23652514.4844   23652516.1964   23652513.8754
       399.5794        311.3434
 -23555732.75843 -18303556.98442  21258382.0894   21258384.2144   21258381.8544
      1995.3954       1554.8554
 -12171111.46043  -9434672.34342  23491481.6034   23491484.4864   23491481.2904
      3305.0194       2575.3644
 -10033146.69543  -7773029.11342  23607276.6134   23607280.2584   23607276.1784
     -3607.8534      -2811.2784
  -3638277.35743  -2784765.18342  25082848.3114   25082850.6694   25082846.7994
      3797.2914       2958.9384
 -22515069.18543 -17474433.41942  21297700.6674   21297701.2424   21297699.5574
     -1938.0004      -1510.1264
 -15874288.40743 -12312854.91842  22202344.4004   22202345.3494   22202343.1414
      1689.3374       1316.3794
  -4232472.73443  -3265936.75942  24604854.0954   24604856.9974   24604853.9504
       618.5364        481.9774
 -15903251.87743 -12340212.91342  22738287.9604   22738287.9344   22738287.6034
     -2799.9574      -2181.7694
   -660083.91743   -508687.64242  24299293.4344   24299295.5044   24299291.4364
      3513.4964       2737.7954
 05  9 20  0 12  0.0000000  0 10G28G11G 1G 3G20G19G14G 9G22G31
 -11290031.56743  -8787017.93942  23650289.5814   23650291.2334   23650288.3684
       380.4144        296.4174
 -23615418.78043 -18350065.56742  21247024.8984   21247026.0654   21247024.1134
      1983.8684       1545.8844
 -12270131.68143  -9511830.92242  23472638.0624   23472642.2504   23472638.2144
      3296.6804       2568.8554
  -9924829.03943  -7688625.79042  23627887.5214   23627891.7494   23627888.1834
     -3613.3014      -2815.5254
  -3752165.14843  -2873508.85042  25061175.0024   25061180.1814   25061173.8534
      3795.3414       2957.4134
 -22456688.14443 -17428941.71642  21308809.8194   21308811.0024   21308808.6254
     -1953.7994      -1522.4184
 -15924695.51143 -12352133.15742  22192751.6054   22192753.7404   22192750.7784
      1671.2524       1302.2974
  -4250715.67543  -3280152.04242  24601382.2794   24601385.2144   24601383.1104
       597.9334        465.9244
 -15819119.40643 -12274655.13542  22754297.8524   22754298.4634   22754297.5134
     -2808.8194      -2188.6864
   -765365.61043   -590725.30842  24279257.3524   24279260.0144   24279256.5884
      3505.4864       2731.5454
 05  9 20  0 12 30.0000000  0 10G28G11G 1G 3G20G19G14G 9G22G31
 -11301142.13543  -8795675.51942  23648175.0304   23648177.4974   23648174.3684
       360.8234        281.1604
 -23674748.27444 -18396296.33842  21235734.7714   21235736.1994   21235734.3184
      1971.7364       1536.4154
 -12368889.32943  -9588784.91242  23453846.0234   23453849.2954   23453844.6274
      3287.5064       2561.6544
  -9816335.95743  -7604085.72342  23648533.8734   23648537.2384   23648532.3454
     -3619.3694      -2820.2904
  -3865974.46943  -2962191.41642  25039518.6544   25039522.4644   25039517.8664
      3792.3304       2955.0694
 -22397822.07643 -17383072.06342  21320011.8104   21320012.9634   21320010.8474
     -1970.1014      -1535.1464
 -15974547.08543 -12390978.52642  22183265.4834   22183267.2344   22183264.5914
      1652.5844       1287.7174
  -4268327.45443  -3293875.50442  24598030.3624   24598034.0194   24598030.5294
       576.7454        449.4114
 -15734711.32043 -12208882.61342  22770359.4284   22770360.8564   22770359.3714
     -2818.1114      -2195.9234
   -870399.38743   -672569.82642  24259268.9814   24259273.8454   24259269.6154
      3496.8794       2724.8394
 05  9 20  0 13  0.0000000  0 10G28G11G 1G 3G20G19G14G 9G22G31
 -11311670.35943  -8803879.33642  23646171.7914   23646173.1894   23646171.3564
       340.9454        265.6904
 -23733719.66444 -18442248.06342  21224512.6644   21224514.3364   21224512.0744
      1959.6914       1527.0324
 -12467381.49643  -9665532.04042  23435103.4564   23435106.7694   23435102.1544
      3278.6184       2554.7624
  -9707669.37243  -7519410.47742  23669212.0234   23669215.8134   23669213.5024
     -3625.0964      -2824.7454
  -3979703.75243  -3050811.60242  25017877.7594   25017880.1534   25017875.8084
      3789.5904       2952.9294
 -22338471.87343 -17336825.16142  21331305.9284   21331306.3214   21331304.7494
     -1986.3854      -1547.8354
 -16023841.29043 -12429389.57542  22173884.8704   22173886.5194   22173883.4694
      1633.7654       1273.0544
  -4285307.05243  -3307106.38642  24594800.2774   24594803.7654   24594799.5904
       555.5714        432.9124
 -15650031.34543 -12142898.22742  22786473.9624   22786474.8364   22786473.6854
     -2827.2474      -2203.0374
   -975182.58543   -754219.06942  24239330.8224   24239332.4754   24239330.0254
      3488.5924       2718.3774
 05  9 20  0 13 30.0000000  0 10G28G11G 1G 3G20G19G14G 9G22G31
 -11321616.31443  -8811629.44242  23644278.7624   23644282.3224   23644279.1294
       322.6394        251.4354
 -23792331.90244 -18487919.93042  21213358.7614   21213360.9584   21213358.6294
      1948.3064       1518.1624
 -12565605.49043  -9742070.17842  23416412.0824   23416415.9264   23416411.6684
      3270.2844       2548.2724
  -9598831.87443  -7434602.05742  23689922.9584   23689926.5114   23689923.1214
     -3629.9964      -2828.5434
  -4093351.60543  -3139368.37642  24996251.8084   24996255.5554   24996250.8144
      3787.1684       2951.0354
 -22278639.14843 -17290202.27342  21342691.6204   21342692.7724   21342690.5634
     -2001.8474      -1559.8764
 -16072576.21443 -12467364.82142  22164609.8904   22164612.9954   22164610.0724
      1615.6924       1258.9804
  -4301653.55743  -3319843.94042  24591688.5374   24591692.0044   24591688.1324
       535.1574        417.0084
 -15565080.77943 -12076702.97442  22802638.6534   22802639.6474   22802638.8554
     -2835.6734      -2209.6004
  -1079712.40043   -835670.88542  24219439.8464   24219442.1014   24219439.5054
      3480.5144       2712.0864
 05  9 20  0 14  0.0000000  0 10G28G11G 1G 3G20G19G14G 9G22G31
 -11330979.92243  -8818925.74942  23642497.3774   23642498.2924   23642495.5634
       302.4094        235.6084
 -23850583.56344 -18533310.83042  21202274.2674   21202275.7384   21202273.5274
      1935.7454       1508.3694
 -12663558.34843  -9818397.04342  23397773.0734   23397775.3314   23397772.1974
      3260.6874       2540.8004
  -9489825.55443  -7349662.10342  23710666.3474   23710670.2824   23710666.2654
     -3636.3544      -2833.5394
  -4206916.37743  -3227860.33842  24974639.9784   24974645.2424   24974638.7014
      3784.2214       2948.7464
 -22218325.00443 -17243204.25142  21354168.9244   21354170.0634   21354168.0824
     -2018.5524      -1572.9054
 -16120750.17143 -12504902.95342  22155442.8624   22155445.9924   22155442.1704
      1596.3944       1243.9414
  -4317366.21643  -3332087.55842  24588700.1444   24588701.1314   24588699.4624
       513.1024        399.8254
 -15479861.14743 -12010298.05742  22818855.7794   22818856.2134   22818855.4744
     -2845.1274      -2216.9884
  -1183986.21143   -916923.19342  24199596.9374   24199600.0524   24199596.9914
      3471.5224       2705.0884
 05  9 20  0 14 30.0000000  0 10G28G11G 1G 3G20G19G14G 9G22G31
 -11339760.93143  -8825768.09142  23640826.3504   23640827.3874   23640824.4424
       283.1484        220.6164
 -23908473.46243 -18578419.83642  21191257.5424   21191259.5904   21191257.4254
      1923.6934       1498.9724
 -12761237.20943  -9894510.42342  23379183.9664   23379187.3844   23379184.4724
      3251.4594       2533.5974
  -9380652.59943  -7264592.27442  23731440.9654   23731446.0354   23731441.6224
     -3641.8064      -2837.7664
  -4320396.57543  -3316286.44442  24953046.2954   24953049.1414   24953044.5604
      3781.3694       2946.5164
 -22157530.87843 -17195832.21742  21365737.9944   21365738.4654   21365736.9834
     -2034.2394      -1585.1164
 -16168361.39543 -12542002.58842  22146382.5384   22146386.1114   22146382.8634
      1577.7484       1229.4114
  -4332443.96643  -3343836.46742  24585831.1774   24585833.1864   24585830.8674
       491.8394        383.2464
 -15394375.29743 -11943685.70942  22835123.5464   22835124.2124   22835123.1454
     -2853.8534      -2223.7914
  -1288001.20643   -997973.84842  24179804.4514   24179807.7064   24179803.9934
      3462.8464       2698.3204
 05  9 20  0 15  0.0000000  0 10G28G11G 1G 3G20G19G14G 9G22G31
 -11347959.09543  -8832156.28642  23639267.0174   23639267.9514   23639265.9544
       264.2404        205.9144
 -23966000.05143 -18623245.74542  21180310.7424   21180312.8124   21180310.7904
      1912.0984       1489.9514
 -12858639.06243  -9970407.93242  23360648.7394   23360652.3314   23360648.9704
      3242.7014       2526.7354
  -9271315.24543  -7179394.35442  23752248.4804   23752251.8504   23752248.5564
     -3646.6104      -2841.5134
  -4433790.50943  -3404645.31842  24931465.8884   24931471.7114   24931466.0764
      3778.9194       2944.6054
 -22096258.59743 -17148087.59142  21377398.2174   21377398.5894   21377396.9614
     -2049.7294      -1597.1804
 -16215408.15443 -12578662.38942  22137431.2364   22137432.9254   22137429.8124
      1559.4284       1215.1404
  -4346886.20043  -3355090.14342  24583080.4874   24583085.6234   24583080.6684
       471.5034        367.4104
 -15308624.64643 -11876867.01842  22851441.5794   22851442.0564   22851441.6254
     -2862.1374      -2230.2314
  -1391754.82143  -1078820.82142  24160059.6324   24160062.8624   24160059.6634
      3454.8244       2692.0634
 05  9 20  0 15 30.0000000  0 10G28G11G 1G 3G20G19G14G 9G22G31
 -11355573.99943  -8838089.96442  23637817.2894   23637818.8844   23637815.5714
       244.5264        190.5474
 -24023161.92344 -18667787.46142  21169433.8044   21169435.1744   21169433.1374
      1899.8194       1480.3714
 -12955760.87543 -10046087.24042  23342167.6024   23342171.5224   23342166.8124
      3233.1284       2519.3214
  -9161815.70843  -7094070.06042  23773085.4544   23773088.1364   23773085.3194
     -3652.2374      -2845.9154
  -4547096.13743  -3492935.34642  24909906.3944   24909909.8754   24909905.5954
      3775.8934       2942.2454
 -22034509.19343 -17099971.18842  21389148.1684   21389148.9364   21389147.2594
     -2065.8034      -1609.7254
 -16261888.43143 -12614880.77042  22128585.7364   22128587.7074   22128584.7014
      1540.2654       1200.1834
  -4360691.94043  -3365847.85042  24580454.1334   24580458.0134   24580453.8744
       450.2784        350.8634
 -15222611.74843 -11809843.99142  22867809.3914   22867809.6274   22867808.8224
     -2870.9734      -2237.1224
  -1495244.27343  -1159461.93542  24140366.9564   24140368.9954   24140365.8014
      3445.6974       2684.9394
 05  9 20  0 16  0.0000000  0 10G28G11G 1G 3G20G19G14G 9G22G31
 -11362606.20143  -8843569.61042  23636478.6404   23636480.6454   23636477.6934
       225.5004        175.7034
 -24079958.03744 -18712044.17442  21158625.7594   21158627.2004   21158625.3394
      1887.8354       1471.0634
 -13052600.11243 -10121546.36142  23323740.0624   23323743.2454   23323739.1574
      3223.9894       2512.2304
  -9052156.43743  -7008621.29742  23793952.4134   23793956.7304   23793952.6904
     -3657.2874      -2849.8334
  -4660312.49643  -3581155.83442  24888361.0524   24888363.6054   24888359.3434
      3773.2674       2940.1974
 -21972284.12143 -17051484.13342  21400989.0354   21400990.2604   21400987.9434
     -2081.3034      -1621.7784
 -16307800.87643 -12650656.68442  22119848.5064   22119850.6004   22119848.0654
      1521.7524       1185.7914
  -4373860.76743  -3376109.30342  24577950.0454   24577951.5334   24577950.0724
       429.0534        334.3294
 -15136338.53143 -11742618.10942  22884226.3254   22884226.4054   22884225.4794
     -2879.3034      -2243.5864
  -1598467.01643  -1239895.24042  24120723.3234   24120725.9264   24120723.5434
      3436.8264       2678.0434
 05  9 20  0 16 30.0000000  0 10G28G11G 1G 3G20G19G14G 9G22G31
 -11369054.76143  -8848594.45842  23635252.1934   23635253.6344   23635252.2654
       205.1234        159.8444
 -24136386.57644 -18756014.45942  21147887.4394   21147889.2264   21147887.0314
      1874.6224       1460.7344
 -13149153.64143 -10196782.84142  23305364.8924   23305369.7924   23305365.4084
      3213.4214       2503.9784
  -8942339.37443  -6923049.59142  23814849.8944   23814854.8084   23814849.6564
     -3663.3244      -2854.5514
  -4773437.47143  -3669305.12342  24866833.4284   24866836.8924   24866832.1054
      3769.0344       2936.9134
 -21909584.18243 -17002627.04842  21412920.7724   21412921.4614   21412919.2904
     -2098.1054      -1634.8934
 -16353143.21043 -12685988.35542  22111220.4874   22111222.3174   22111220.0834
      1501.7554       1170.2044
  -4386391.64943  -3385873.61642  24575563.8144   24575567.1684   24575563.8724
       407.0844        317.2044
 -15049806.97943 -11675190.91942  22900693.6504   22900693.6594   22900693.0254
     -2888.8314      -2251.0404
  -1701420.06043  -1320118.42542  24101131.4644   24101134.7024   24101131.0444
      3427.0774       2670.4584
 05  9 20  0 17  0.0000000  0 10G28G11G 1G 3G20G19G14G 9G22G31
 -11374920.38443  -8853165.06342  23634135.3634   23634138.2034   23634134.7354
       186.2874        145.1824
 -24192446.87744 -18799697.80742  21137219.1204   21137221.1774   21137219.1324
      1862.8794       1451.5884
 -13245418.71543 -10271794.54642  23287047.6094   23287051.5624   23287046.7044
      3204.3484       2496.8834
  -8832367.12943  -6837356.92042  23835776.7564   23835781.0194   23835776.1554
     -3667.8674      -2858.1164
  -4886469.75343  -3757382.20142  24845324.4204   24845327.3534   24845323.3064
      3766.7234       2935.1134
 -21846412.05843 -16953402.02942  21424941.8844   21424942.7374   21424940.8274
     -2113.2014      -1646.6564
 -16397914.35843 -12720874.93942  22102700.6204   22102703.0294   22102700.1504
      1483.2334       1155.7594
  -4398283.91143  -3395140.34742  24573302.1344   24573304.1324   24573301.8854
       385.9674        300.7504
 -14963020.27143 -11607564.90842  22917208.2854   22917208.3134   22917208.3064
     -2896.6274      -2257.1194
  -1804100.83143  -1400129.42442  24081593.9954   24081595.3544   24081593.3534
      3418.5354       2663.7954
 05  9 20  0 17 30.0000000  0 10G28G11G 1G 3G20G19G14G 9G22G31
 -11380202.78543  -8857281.22142  23633130.3284   23633132.3654   23633129.9724
       166.5824        129.8114
 -24248137.37244 -18843092.99142  21126622.1564   21126623.8814   21126621.9174
      1850.3794       1441.8534
 -13341392.33843 -10346579.16742  23268784.7534   23268785.7584   23268783.9664
      3194.3724       2489.1544
  -8722241.74043  -6751544.96742  23856732.8214   23856737.1644   23856733.5374
     -3673.1984      -2862.2144
  -4999407.55043  -3845385.59942  24823833.3954   24823835.9454   24823831.6264
      3763.0934       2932.2794
 -21782768.88043 -16903809.95542  21437052.7254   21437053.2534   21437051.7684
     -2129.1014      -1659.0434
 -16442112.38843 -12755314.95542  22094289.9954   22094292.4004   22094289.7644
      1463.9134       1140.7054
  -4409536.59143  -3403908.68842  24571159.6124   24571163.4174   24571159.0084
       364.6544        284.1414
 -14875978.20943 -11539739.92642  22933771.0674   22933772.3984   22933771.3434
     -2905.4514      -2263.9834
  -1906506.53243  -1479926.07942  24062105.3414   24062108.1624   24062105.1044
      3408.9274       2656.3024
 05  9 20  0 18  0.0000000  0 10G28G11G 1G 3G20G19G14G 9G22G31
 -11384901.86043  -8860942.83342  23632236.3184   23632238.1054   23632235.8984
       146.6604        114.2824
 -24303456.71944 -18886198.97842  21116095.7254   21116097.1144   21116094.8794
      1837.5434       1431.8484
 -13437071.88743 -10421134.62842  23250576.6754   23250580.4854   23250576.1264
      3184.2324       2481.2164
  -8611965.74243  -6665615.63342  23877718.5264   23877722.7874   23877718.3534
     -3678.7064      -2866.5064
  -5112249.54643  -3933314.42342  24802358.7404   24802362.7154   24802358.3024
      3759.6944       2929.6314
 -21718655.79343 -16853851.72242  21449253.1844   21449253.7154   21449252.2084
     -2145.2864      -1671.6474
 -16485735.56543 -12789307.02142  22085989.2944   22085990.9314   22085988.1974
      1444.2524       1125.3964
  -4420149.05443  -3412178.17142  24569140.5424   24569143.0734   24569140.5444
       342.7994        267.1144
 -14788684.85243 -11471719.13842  22950382.8574   22950383.6064   22950382.4664
     -2914.1134      -2270.7284
  -2008634.71743  -1559506.46642  24042671.4164   24042674.4194   24042670.6604
      3399.3064       2648.8074
 05  9 20  0 18 30.0000000  0 10G28G11G 1G 3G20G19G14G 9G22G31
 -11389017.54843  -8864149.86542  23631453.4874   23631454.6074   23631451.6444
       127.4284         99.3074
 -24358403.33644 -18929014.52042  21105638.8234   21105640.8394   21105638.8404
      1825.3544       1422.3524
 -13532454.37243 -10495458.60542  23232426.4134   23232430.7464   23232425.1594
      3174.3354       2473.5124
  -8501541.03543  -6579570.43942  23898731.9134   23898735.6124   23898731.7024
     -3683.4084      -2870.1994
  -5224993.72143  -4021166.94442  24780906.1634   24780909.6204   24780905.5194
      3756.4104       2927.0694
 -21654074.15943 -16803528.38442  21461542.9274   21461543.3204   21461541.7544
     -2160.5844      -1683.5694
 -16528782.35843 -12822849.96542  22077797.0944   22077799.6204   22077796.8884
      1425.3704       1110.6764
  -4430120.42443  -3419948.05042  24567243.9184   24567245.7184   24567243.4394
       321.6044        250.5974
 -14701142.04643 -11403503.96442  22967041.8174   22967041.4874   22967040.9894
     -2922.2494      -2277.0654
  -2110482.55643  -1638868.43842  24023292.2274   24023293.5184   24023290.0854
      3390.1884       2641.7004
 05  9 20  0 19  0.0000000  0 10G28G11G 1G 3G20G19G14G 9G22G31
 -11392550.38043  -8866902.72242  23630781.0444   23630782.6474   23630781.0484
       107.8174         84.0354
 -24412976.26344 -18971538.87842  21095254.3504   21095255.8834   21095253.9114
      1812.7604       1412.5264
 -13627536.85943 -10569548.80842  23214332.3384   23214336.3994   23214331.4694
      3164.2954       2465.6894
  -8390969.66843  -6493410.94442  23919773.3314   23919774.9474   23919771.7244
     -3688.3554      -2874.0694
  -5337638.94743  -4108942.40042  24759468.9124   24759472.9794   24759468.9654
      3752.9314       2924.3664
 -21589025.99643 -16752841.52042  21473921.5994   21473921.6474   21473920.1284
     -2176.2304      -1695.7774
 -16571250.92443 -12855942.33242  22069715.9724   22069718.1194   22069714.7854
      1405.7874       1095.4064
  -4439450.36643  -3427218.17542  24565467.5614   24565470.3404   24565466.7324
       300.2494        233.9514
 -14613351.16743 -11335095.48242  22983747.6314   22983748.3374   22983747.6004
     -2930.5324      -2283.5504
  -2212047.26843  -1718009.77442  24003962.6124   24003966.8764   24003962.2454
      3380.4424       2634.1104
 05  9 20  0 19 30.0000000  0 10G28G11G 1G 3G20G19G14G 9G22G31
 -11395500.60343  -8869201.61242  23630219.9054   23630221.9814   23630220.2434
        88.5404         68.9874
 -24467174.13644 -19013770.97942  21084940.6844   21084942.2934   21084940.4164
      1800.2894       1402.8254
 -13722316.60643 -10643403.13242  23196297.4104   23196299.9304   23196296.8154
      3154.0534       2457.6784
  -8280254.17843  -6407139.15942  23940840.8494   23940843.2534   23940839.8024
     -3692.9384      -2877.6234
  -5450183.64543  -4196639.49542  24738051.9444   24738057.0684   24738051.7924
      3749.9914       2922.0664
 -21523512.99643 -16701792.44642  21486387.9854   21486388.3584   21486386.8494
     -2191.5484      -1707.7104
 -16613140.11843 -12888583.24542  22061744.9514   22061746.6884   22061744.1824
      1386.6414       1080.4964
  -4448138.41843  -3433988.06642  24563814.5794   24563817.4754   24563814.9614
       278.7234        217.1834
 -14525314.20343 -11266495.24542  23000500.4114   23000500.7954   23000499.9234
     -2938.7154      -2289.9094
  -2313326.12243  -1796928.36042  23984690.8874   23984693.3454   23984689.8354
      3370.9824       2626.7454
 05  9 20  0 20  0.0000000  0 10G28G11G 1G 3G20G19G14G 9G22G31
 -11397867.59543  -8871046.01942  23629770.0854   23629771.3334   23629768.8204
        69.3884         54.0864
 -24520995.75744 -19055709.90142  21074698.7924   21074700.5284   21074698.3964
      1787.7634       1393.0784
 -13816790.89443 -10717019.43542  23178317.5114   23178321.8104   23178318.0414
      3144.3004       2450.1144
  -8169396.77043  -6320756.75642  23961936.3044   23961940.3194   23961935.7034
     -3697.2224      -2880.9494
  -5562625.81443  -4284256.70042  24716655.3474   24716660.9504   24716655.1524
      3746.3844       2919.2614
 -21457536.44943 -16650382.15842  21498942.7974   21498943.0624   21498941.6484
     -2206.5194      -1719.3604
 -16654448.49943 -12920771.57742  22053884.3464   22053886.0864   22053882.9344
      1367.4494       1065.5554
  -4456184.07243  -3440257.46042  24562283.7484   24562285.5954   24562283.0144
       257.7164        200.8204
 -14437033.63643 -11197705.19942  23017299.7704   23017300.6684   23017299.7734
     -2946.5554      -2296.0164
  -2414316.49543  -1875622.15842  23965472.0294   23965475.0574   23965471.8704
      3361.5734       2619.4274
 05  9 20  0 20 30.0000000  0 10G28G11G 1G 3G20G19G14G 9G22G31
 -11399651.45543  -8872436.04842  23629429.2054   23629431.8294   23629429.9824
        49.2364         38.3454
 -24574439.80744 -19097354.61242  21064528.8744   21064530.8744   21064528.2494
      1775.0974       1383.2044
 -13910956.68743 -10790395.35442  23160400.0804   23160402.6204   23160399.1894
      3133.7214       2441.8754
  -8058399.81343  -6234265.65342  23983058.7424   23983062.7034   23983058.4924
     -3702.1504      -2884.7924
  -5674964.11543  -4371792.99142  24695278.6904   24695282.4114   24695277.9844
      3743.1664       2916.7484
 -21391097.59743 -16598611.63642  21511585.8384   21511586.0454   21511584.4234
     -2222.3254      -1731.6724
 -16695173.97243 -12952505.69142  22046133.5084   22046136.9684   22046133.0014
      1347.7914       1050.2214
  -4463586.57243  -3446025.62642  24560874.4354   24560877.4984   24560873.5814
       236.3164        184.1364
 -14348511.55543 -11128726.95742  23034144.9314   23034145.2894   23034144.7874
     -2954.5074      -2302.2084
  -2515015.44643  -1954088.89542  23946309.6794   23946312.7884   23946309.4064
      3351.5164       2611.5804
 05  9 20  0 21  0.0000000  0 10G28G11G 1G 3G20G19G14G 9G22G31
 -11400853.26543  -8873372.53642  23629201.6114   23629202.6704   23629199.6634
        30.2054         23.5114
 -24627505.39244 -19138704.41642  21054430.5504   21054432.1464   21054430.4244
      1762.4534       1373.3294
 -14004811.37143 -10863528.84142  23142538.7714   23142542.6984   23142538.9494
      3123.2774       2433.7134
  -7947265.61843  -6147667.60542  24004206.6054   24004210.1354   24004204.6734
     -3706.8574      -2888.4644
  -5787197.01643  -4459247.12742  24673922.4454   24673925.4824   24673919.8244
      3739.2464       2913.6864
 -21324198.51843 -16546482.50442  21524316.0564   21524316.5454   21524314.9464
     -2237.6704      -1743.6564
 -16735315.61243 -12983784.87742  22038495.4004   22038497.4344   22038494.7744
      1328.2984       1035.0294
  -4470345.74343  -3451292.50542  24559589.7404   24559592.9234   24559589.4754
       214.6914        167.3004
 -14259750.40543 -11059562.41542  23051035.1424   23051035.8734   23051035.4604
     -2962.7194      -2308.6164
  -2615420.66643  -2032326.71342  23927202.6184   23927207.7534   23927203.4944
      3341.7974       2603.9864
 05  9 20  0 21 30.0000000  0 10G28G11G 1G 3G20G19G14G 9G22G31
 -11401472.05443  -8873854.70242  23629082.4324   23629084.1924   23629082.1804
        11.1844          8.7204
 -24680190.49444 -19179757.74142  21044405.1764   21044406.8724   21044404.8004
      1749.9704       1363.6214
 -14098351.81743 -10936417.45842  23124739.2804   23124742.9534   23124738.7184
      3112.9384       2425.6504
  -7835996.16243  -6060964.16342  24025380.2674   24025384.6534   24025380.3054
     -3711.1194      -2891.7814
  -5899322.75543  -4546617.75742  24652583.4634   24652588.2774   24652583.9554
      3736.6254       2911.6664
 -21256840.63343 -16493995.85242  21537133.6094   21537134.7754   21537132.6554
     -2252.7504      -1755.3874
 -16774871.50643 -13014607.62942  22030967.9594   22030970.2244   22030967.2614
      1308.9144       1019.9304
  -4476460.75143  -3456057.47942  24558426.0314   24558426.6544   24558424.7334
       193.2844        150.6084
 -14170750.69543 -10990211.97742  23067970.8414   23067971.6244   23067970.9654
     -2970.4414      -2314.6224
  -2715529.17743  -2110333.35442  23908153.1134   23908156.5174   23908153.3304
      3332.0304       2596.3834
 05  9 20  0 22  0.0000000  0 10G28G11G 1G 3G20G19G14G 9G22G31
 -11401508.63143  -8873883.22042  23629076.2394   23629077.4214   23629075.4974
        -8.1904         -6.3984
 -24732493.92344 -19220513.65242  21034452.0244   21034453.8824   21034451.4484
      1737.4544       1353.8734
 -14191575.23643 -11009059.05742  23107000.2614   23107003.9404   23106998.7974
      3102.4264       2417.4724
  -7724593.60343  -5974156.98242  24046580.3034   24046583.4504   24046579.1314
     -3715.8734      -2895.4744
  -6011339.68743  -4633903.67342  24631266.4584   24631272.7414   24631267.5764
      3732.2204       2908.2324
 -21189025.51743 -16441152.91642  21550037.9314   21550039.6714   21550037.0234
     -2267.8934      -1767.1944
 -16813840.45843 -13044973.03442  22023552.6474   22023554.6154   22023552.3594
      1289.5414       1004.8374
  -4481931.28943  -3460320.23842  24557382.6384   24557386.3044   24557383.3124
       172.2624        134.2384
 -14081515.83643 -10920678.33642  23084952.0494   23084952.6574   23084951.8084
     -2978.1224      -2320.6054
  -2815338.37943  -2188106.74842  23889158.8384   23889163.5994   23889160.4574
      3322.5004       2588.9594
 05  9 20  0 22 30.0000000  0 10G28G11G 1G 3G20G19G14G 9G22G31
 -11400963.08543  -8873458.11242  23629180.1954   23629182.7614   23629179.7264
       -27.5684        -21.4594
 -24784414.64044 -19260971.35542  21024571.7664   21024573.5784   21024571.5614
      1724.3974       1343.6954
 -14284478.97443 -11081451.55842  23089320.6664   23089324.1674   23089320.3564
      3091.5754       2409.0364
  -7613060.37043  -5887247.99142  24067804.0114   24067805.6854   24067803.6664
     -3719.8294      -2898.5314
  -6123246.55143  -4721103.80542  24609972.6094   24609976.5154   24609971.5444
      3727.9274       2904.8834
 -21120754.75143 -16387954.93142  21563029.5424   21563030.5904   21563028.4854
     -2283.0454      -1778.9834
 -16852220.79743 -13074879.77242  22016248.8954   22016250.5844   22016248.3584
      1269.6344        989.3384
  -4486756.94943  -3464080.50742  24556465.2204   24556468.5004   24556464.6464
       150.3994        117.1964
 -13992047.66543 -10850962.88842  23101977.8964   23101977.9614   23101977.3714
     -2985.9534      -2326.7274
  -2914845.62243  -2265644.87242  23870224.7484   23870228.5894   23870225.5914
      3311.8864       2580.7014
 05  9 20  0 23  0.0000000  0 10G28G11G 1G 3G20G19G14G 9G22G31
 -11399835.71943  -8872579.65242  23629393.8294   23629397.1464   23629393.5174
       -46.9064        -36.5474
 -24835951.42544 -19301129.88542  21014764.4764   21014766.6054   21014764.2174
      1711.7944       1333.8734
 -14377060.14543 -11153592.70342  23071703.3794   23071706.9824   23071702.8234
      3080.9464       2400.7404
  -7501398.60443  -5800238.83142  24089052.7114   24089056.8984   24089051.4234
     -3723.9124      -2901.7404
  -6235041.56443  -4808216.78642  24588699.5464   24588703.4174   24588698.3504
      3724.9324       2902.5524
 -21052029.86643 -16334403.08842  21576108.1364   21576108.8024   21576106.9034
     -2297.9034      -1790.5684
 -16890010.97643 -13104326.65242  22009057.8334   22009059.7524   22009057.3664
      1250.1344        974.1344
  -4490937.32243  -3467337.94642  24555671.0064   24555672.8244   24555670.0314
       128.9804        100.5134
 -13902348.41443 -10781067.35542  23119047.5994   23119046.8664   23119047.3614
     -2993.4304      -2332.5494
  -3014047.98243  -2342945.42042  23851348.4834   23851351.0474   23851346.9174
      3302.0834       2573.0614
 05  9 20  0 23 30.0000000  0 10G28G11G 1G 3G20G19G14G 9G22G31
 -11398126.89443  -8871248.10742  23629720.6384   23629721.0224   23629718.8364
       -67.0264        -52.2484
 -24887102.54444 -19340987.89842  21005030.7544   21005032.6244   21005030.5154
      1698.2194       1323.2874
 -14469315.89943 -11225480.27442  23054146.9674   23054150.7534   23054145.6194
      3069.3314       2391.6554
  -7389610.43443  -5713131.21342  24110325.0354   24110329.2204   24110323.8914
     -3728.7214      -2905.4894
  -6346722.92543  -4895241.15442  24567447.6174   24567451.1834   24567447.2784
      3720.0754       2898.7594
 -20982852.65443 -16280498.77842  21589271.7464   21589272.5184   21589270.7834
     -2313.7544      -1802.9194
 -16927209.97843 -13133312.86742  22001979.3614   22001980.9494   22001978.1144
      1229.7934        958.2794
  -4494472.10343  -3470092.33742  24554997.9684   24555000.8964   24554998.4024
       106.4634         82.9584
 -13812419.70043 -10710993.03342  23136160.1364   23136160.3294   23136159.2744
     -3001.7474      -2339.0124
  -3112942.69043  -2420006.22142  23832529.8424   23832531.2334   23832528.0964
      3291.1034       2564.4904
 05  9 20  0 24  0.0000000  0 10G28G11G 1G 3G20G19G14G 9G22G31
 -11395836.76743  -8869463.60642  23630156.3554   23630156.8184   23630156.0174
       -85.9494        -66.9544
 -24937867.38044 -19380544.91042  20995370.7794   20995372.4864   20995370.2014
      1685.7824       1313.6054
 -14561243.71943 -11297112.31042  23036653.3254   23036657.5944   23036652.5914
      3058.8204       2383.4914
  -7277698.55643  -5625927.15042  24131620.8434   24131624.2984   24131620.9074
     -3732.0994      -2908.1274
  -6458289.22543  -4982175.91942  24546217.5494   24546219.8624   24546216.5804
      3716.4964       2895.9664
 -20913225.06243 -16226243.52442  21602521.5374   21602522.1774   21602520.7194
     -2328.2774      -1814.2294
 -16963816.46243 -13161837.38142  21995013.2464   21995014.9924   21995012.2284
      1210.2904        943.0954
  -4497361.00543  -3472343.42842  24554446.9544   24554452.0244   24554447.3494
        85.5174         66.6394
 -13722262.95543 -10640741.01442  23153316.8244   23153316.1844   23153316.4554
     -3008.9904      -2344.6664
  -3211527.36643  -2496825.45642  23813768.6474   23813770.8294   23813767.7784
      3280.9654       2556.6044
 05  9 20  0 24 30.0000000  0 10G28G11G 1G 3G20G19G14G 9G22G31
 -11392965.56043  -8867226.29942  23630701.5784   23630702.5524   23630701.0834
      -105.6064        -82.3044
 -24988244.60144 -19419799.88342  20985784.0914   20985785.8134   20985783.7754
      1672.4804       1303.2224
 -14652840.43243 -11368486.34342  23019223.8564   23019226.3684   23019222.2694
      3047.2504       2374.4734
  -7165664.67343  -5538628.02842  24152940.8454   24152943.7204   24152940.3374
     -3736.8704      -2911.8624
  -6569738.92943  -5069019.75442  24525006.1064   24525013.3404   24525006.4744
      3712.5544       2892.9024
 -20843148.35143 -16171638.30842  21615856.5484   21615857.6654   21615855.8704
     -2343.7594      -1826.3224
 -16999828.45043 -13189898.65742  21988160.1514   21988162.4134   21988159.3054
      1190.2674        927.4814
  -4499603.54543  -3474090.88342  24554021.6374   24554023.6324   24554021.2794
        63.9284         49.8144
 -13631881.38943 -10570313.81342  23170515.2584   23170516.1264   23170514.1634
     -3016.7934      -2350.7564
  -3309798.89843  -2573400.66242  23795067.6594   23795071.6774   23795066.0964
      3270.3294       2548.3194
 05  9 20  0 25  0.0000000  0 10G28G11G 1G 3G20G19G14G 9G22G31
 -11389513.92643  -8864536.73342  23631358.9954   23631361.0164   23631357.6044
      -125.6714        -97.9424
 -25038232.52544 -19458751.51442  20976272.3624   20976273.4874   20976271.5484
      1658.8144       1292.5764
 -14744103.48743 -11439600.39742  23001856.8004   23001860.5434   23001856.6374
      3035.6064       2365.4024
  -7053511.49843  -5451235.96542  24174283.7024   24174287.0094   24174282.3924
     -3741.2714      -2915.2774
  -6681070.38343  -5155771.48542  24503822.2504   24503825.7544   24503821.5534
      3708.1974       2889.5004
 -20772624.33043 -16116684.54242  21629277.0494   21629277.6724   21629276.3284
     -2359.1114      -1838.2724
 -17035245.18443 -13217496.09142  21981421.0254   21981422.8584   21981419.7494
      1169.7014        911.4534
  -4501199.55043  -3475334.53842  24553716.2704   24553720.1664   24553717.0184
        41.6714         32.4674
 -13541276.68543 -10499712.75542  23187757.0084   23187756.6794   23187755.3524
     -3024.7734      -2356.9754
  -3407754.64643  -2649729.83342  23776427.9684   23776431.1584   23776426.7934
      3258.9914       2539.4744
 05  9 20  0 25 30.0000000  0 10G28G11G 1G 3G20G19G14G 9G22G31
 -11385481.74143  -8861394.77342  23632125.5124   23632128.7854   23632125.5524
      -143.8254       -112.0934
 -25087830.09644 -19497398.96442  20966833.8634   20966835.6334   20966833.4474
      1647.0584       1283.4284
 -14835030.04543 -11510452.21942  22984553.1764   22984557.7304   22984553.3224
      3025.5784       2357.5744
  -6941241.03243  -5363752.50242  24195647.1744   24195651.2754   24195646.6084
     -3743.8384      -2917.2694
  -6792281.98643  -5242429.84442  24482660.9864   24482663.1914   24482659.5994
      3705.4134       2887.3304
 -20701654.78543 -16061383.60342  21642782.6394   21642782.7364   21642781.4104
     -2372.6964      -1848.8564
 -17070065.13743 -13244628.50042  21974794.2844   21974797.0254   21974793.9314
      1151.0114        896.8984
  -4502148.76443  -3476074.19242  24553537.1454   24553538.4454   24553537.6004
        21.3274         16.6164
 -13450450.43443 -10428939.06142  23205039.2264   23205039.6654   23205039.8154
     -3030.7854      -2361.6604
  -3505391.74543  -2725810.70342  23757848.5924   23757849.5354   23757847.9134
      3249.4374       2532.0424
 05  9 20  0 26  0.0000000  0 10G28G11G 1G 3G20G19G14G 9G22G31
 -11380869.69743  -8857800.96642  23633004.6564   23633006.0484   23633003.5404
      -163.2744       -127.2444
 -25137036.06144 -19535741.27242  20957470.0224   20957472.0314   20957469.7604
      1633.7894       1273.0824
 -14925617.30943 -11581039.67142  22967315.1434   22967319.2804   22967314.4554
      3014.0404       2348.6054
  -6828855.62143  -5276179.47742  24217033.0714   24217036.8364   24217032.3814
     -3748.0734      -2920.5914
  -6903372.20243  -5328993.61942  24461521.2594   24461523.6544   24461519.4514
      3701.1674       2884.0214
 -20630241.14743 -16005736.62842  21656371.5934   21656372.4444   21656370.4614
     -2387.6714      -1860.5264
 -17104287.11143 -13271294.96042  21968282.3474   21968284.4754   21968281.4934
      1130.9204        881.2264
  -4502451.13243  -3476309.78342  24553478.7164   24553482.4284   24553478.2734
         -.5984          -.4664
 -13359404.80543 -10357994.40042  23222366.0754   23222365.9074   23222364.8564
     -3038.4434      -2367.6224
  -3602707.55143  -2801641.19842  23739329.3954   23739332.5534   23739328.4874
      3238.3314       2523.3694
 05  9 20  0 26 30.0000000  0 10G28G11G 1G 3G20G19G14G 9G22G31
 -11375678.10443  -8853755.57242  23633992.3494   23633992.9014   23633991.0384
      -183.0424       -142.6054
 -25185849.27944 -19573777.54342  20948181.6394   20948183.2974   20948181.2144
      1620.2164       1262.5264
 -15015862.58543 -11651360.63942  22950141.7114   22950146.0084   22950141.7774
      3002.2294       2339.4254
  -6716357.43243  -5188518.58442  24238440.1364   24238445.5294   24238441.0264
     -3752.2634      -2923.8174
  -7014339.26343  -5415461.43042  24440404.9324   24440406.2854   24440404.0574
      3696.6814       2880.5404
 -20558385.29543 -15949745.06842  21670045.2384   21670046.4554   21670044.2234
     -2402.7404      -1872.2524
 -17137909.88043 -13297494.50142  21961883.8264   21961886.2514   21961883.2464
      1110.5464        865.3844
  -4502106.39643  -3476041.18642  24553544.5744   24553548.4364   24553544.7494
       -22.6944        -17.6774
 -13268142.25443 -10286880.71242  23239732.7164   23239733.0974   23239731.8744
     -3045.9954      -2373.4914
  -3699699.26743  -2877219.15442  23720872.5754   23720876.0764   23720871.4194
      3227.2094       2514.7154
 05  9 20  0 27  0.0000000  0 10G28G11G 1G 3G20G19G14G 9G22G31
 -11369907.66043  -8849259.12942  23635090.1384   23635090.7754   23635088.9994
      -202.2854       -157.6344
 -25234268.41144 -19611506.73242  20938968.1624   20938969.3964   20938967.3464
      1607.1454       1252.3074
 -15105763.16843 -11721413.02742  22933035.2624   22933039.0524   22933034.3814
      2990.4734       2330.2274
  -6603748.71343  -5100771.56042  24259869.0594   24259872.5214   24259869.7324
     -3755.8114      -2926.6044
  -7125181.66743  -5501832.04742  24419309.3824   24419314.6294   24419309.5854
      3692.5504       2877.2894
 -20486089.00843 -15893410.31442  21683802.9964   21683803.7324   21683801.7724
     -2417.5524      -1883.8114
 -17170932.14643 -13323226.11242  21955599.7294   21955602.4374   21955599.1274
      1090.3804        849.6334
  -4501114.20443  -3475268.05842  24553733.1114   24553736.7394   24553733.2464
       -43.9034        -34.2204
 -13176664.37643 -10215599.26342  23257139.6324   23257140.9064   23257140.0494
     -3053.1114      -2379.0544
  -3796364.29343  -2952542.55142  23702477.8764   23702480.7514   23702477.4484
      3216.4674       2506.3364
 05  9 20  0 27 30.0000000  0 10G28G11G 1G 3G20G19G14G 9G22G31
 -11363558.72343  -8844311.90242  23636298.0464   23636298.6144   23636297.6784
      -220.7594       -171.9664
 -25282292.26444 -19648927.91142  20929828.5834   20929830.6584   20929828.2924
      1594.6794       1242.5934
 -15195316.30743 -11791194.66242  22915994.1714   22915998.1904   22915993.6064
      2979.7404       2321.8724
  -6491031.79843  -5012940.19342  24281319.9634   24281322.1284   24281318.6204
     -3758.5084      -2928.7014
  -7235897.93143  -5588104.40842  24398241.5564   24398246.8134   24398242.2834
      3689.1844       2874.6764
 -20413354.14243 -15836733.80642  21697643.5924   21697644.4434   21697642.6274
     -2431.2134      -1894.4624
 -17203352.87043 -13348489.00042  21949430.3954   21949432.5464   21949429.8674
      1071.1804        834.6684
  -4499474.56743  -3473990.38242  24554046.0844   24554048.6904   24554044.8024
       -64.6424        -50.3704
 -13084973.30543 -10144151.69742  23274588.4804   23274588.9994   23274587.7694
     -3059.3674      -2383.9304
  -3892699.88743  -3027609.25542  23684145.5574   23684148.6664   23684146.1134
      3206.1864       2498.3234
 05  9 20  0 28  0.0000000  0 10G28G11G 1G 3G20G19G14G 9G22G31
 -11356631.57743  -8838914.13642  23637615.5384   23637616.9884   23637615.6964
      -240.8094       -187.6244
 -25329919.44544 -19686040.00342  20920765.6614   20920767.4164   20920765.1024
      1580.4874       1231.5604
 -15284519.07543 -11860703.29242  22899019.3824   22899022.5134   22899018.5244
      2967.2144       2312.1384
  -6378208.64543  -4925026.08342  24302788.3684   24302792.3954   24302788.2684
     -3762.8134      -2932.0344
  -7346486.54343  -5674277.28342  24377197.2344   24377202.2764   24377196.1844
      3683.6824       2870.4064
 -20340182.27243 -15779716.77642  21711567.9174   21711568.6594   21711566.7854
     -2446.8374      -1906.6164
 -17235170.53843 -13373281.98042  21943375.5714   21943377.6624   21943375.7744
      1050.1314        818.2974
  -4497187.45343  -3472208.22242  24554480.6824   24554483.7734   24554480.7044
       -87.3074        -68.0304
 -12993070.77843 -10072539.33142  23292077.3164   23292076.2374   23292076.7424
     -3067.1834      -2390.0304
  -3988703.50143  -3102417.27542  23665876.2744   23665880.0044   23665876.6354
      3193.9764       2488.8354
 05  9 20  0 28 30.0000000  0 10G28G11G 1G 3G20G19G14G 9G22G31
 -11349126.67243  -8833066.15942  23639044.4374   23639047.0724   23639044.5054
      -259.9774       -202.5694
 -25377148.83944 -19722842.12442  20911778.2864   20911779.9454   20911777.9084
      1567.4654       1221.3964
 -15373368.79343 -11929936.79842  22882111.8454   22882114.8794   22882111.6344
      2955.4904       2302.9824
  -6265281.60543  -4837031.01542  24324277.0794   24324282.4934   24324276.9734
     -3766.1174      -2934.6404
  -7456945.67443  -5760349.27942  24356178.2674   24356181.1644   24356176.9494
      3679.8904       2867.4384
 -20266575.21343 -15722360.64242  21725575.0884   21725575.8414   21725574.0364
     -2460.9684      -1917.6354
 -17266384.17143 -13397604.27142  21937436.0784   21937438.9254   21937435.6184
      1030.1534        802.7204
  -4494252.55043  -3469921.30042  24555039.6174   24555042.6224   24555039.6874
      -109.2224        -85.1144
 -12900958.97943 -10000763.88442  23309604.6144   23309605.1154   23309605.1394
     -3074.1084      -2395.4234
  -4084372.15543  -3176964.27642  23647672.4384   23647675.0994   23647671.1594
      3183.0764       2480.3154
 05  9 20  0 29  0.0000000  0 10G28G11G 1G 3G20G19G14G 9G22G31
 -11341044.73643  -8826768.54142  23640582.0834   23640585.1854   23640582.0374
      -278.8194       -217.2754
 -25423979.29044 -19759333.38242  20902867.3374   20902868.6884   20902866.3984
      1554.4954       1211.3024
 -15461862.87043 -11998893.20242  22865272.0134   22865275.5434   22865271.0694
      2944.1074       2294.1294
  -6152253.05943  -4748956.87642  24345786.2404   24345790.7904   24345786.0134
     -3769.2584      -2937.0884
  -7567274.14243  -5846319.48542  24335184.3814   24335186.6564   24335182.9344
      3675.5604       2864.0864
 -20192534.84843 -15664666.85942  21739663.8584   21739665.6974   21739663.4034
     -2475.1334      -1928.6684
 -17296992.66843 -13421455.02742  21931612.0104   21931613.8644   21931611.3054
      1010.4274        787.3584
  -4490670.28143  -3467129.91342  24555720.7844   24555724.2564   24555721.5824
      -129.8944       -101.2134
 -12808639.97943  -9928826.99642  23327172.7314   23327173.6864   23327172.6424
     -3080.6004      -2400.4494
  -4179703.32243  -3251248.28142  23629530.8494   23629533.7604   23629530.4154
      3172.0894       2471.7374
 05  9 20  0 29 30.0000000  0 10G28G11G 1G 3G20G19G14G 9G22G31
 -11332386.08643  -8820021.55142  23642229.6234   23642231.9944   23642229.8644
      -298.2344       -232.3784
 -25470409.38944 -19795512.67742  20894031.0484   20894033.1334   20894030.8484
      1541.0754       1200.8324
 -15549998.32943 -12067570.15642  22848499.4814   22848504.0774   22848499.2284
      2931.8204       2284.5194
  -6039125.09343  -4660805.21042  24367314.6094   24367318.2144   24367314.0374
     -3772.3784      -2939.5224
  -7677469.92143  -5932186.28342  24314213.9974   24314217.4804   24314212.3034
      3671.1424       2860.6314
 -20118062.69743 -15606636.62842  21753835.8564   21753837.2354   21753835.1054
     -2489.5284      -1939.9064
 -17326994.67143 -13444833.19142  21925902.3984   21925904.0164   21925901.6054
       990.0684        771.4524
  -4486440.23343  -3463833.77842  24556527.4864   24556529.8254   24556525.7634
      -151.8014       -118.2874
 -12716115.46043  -9856729.97542  23344779.2194   23344779.6654   23344778.9034
     -3087.5794      -2405.9094
  -4274694.27243  -3325267.21642  23611454.3894   23611458.0884   23611454.2204
      3160.7364       2462.9034
 05  9 20  0 30  0.0000000  0 10G28G11G 1G 3G20G19G14G 9G22G31
 -11323151.37943  -8812825.67342  23643986.9494   23643988.5354   23643986.5074
      -318.5294       -248.2094
 -25516438.07344 -19831379.18242  20885271.9974   20885274.0354   20885271.6044
      1526.4054       1189.4024
 -15637772.54243 -12135965.62742  22831796.4104   22831800.1034   22831796.3614
      2918.5224       2274.1584
  -5925900.08343  -4572577.94442  24388859.1474   24388864.7544   24388857.5994
     -3777.0624      -2943.1604
  -7787531.52943  -6017948.49142  24293270.8474   24293273.5544   24293270.5224
      3665.3434       2856.1024
 -20043160.80443 -15548271.52842  21768089.4584   21768090.0714   21768088.2274
     -2504.9844      -1951.9494
 -17356389.52143 -13467738.25342  21920309.1584   21920310.3604   21920307.9014
       968.5414        754.7004
  -4481562.57643  -3460033.01742  24557454.3274   24557457.2084   24557455.0254
      -174.6414       -136.0814
 -12623387.72643  -9784474.61142  23362424.6224   23362426.1294   23362424.4664
     -3095.5254      -2412.0854
  -4369342.40443  -3399019.00342  23593442.8174   23593445.9184   23593444.0684
      3148.1044       2453.0614
 05  9 20  0 30 30.0000000  0 10G28G11G 1G 3G20G19G14G 9G22G31
 -11313341.50243  -8805181.62942  23645853.9584   23645856.7764   23645853.2014
      -336.0814       -261.8534
 -25562064.29444 -19866932.08242  20876590.3314   20876591.7924   20876589.8284
      1514.5314       1180.1694
 -15725183.00343 -12204077.65042  22815162.0104   22815166.5534   22815162.1354
      2908.0334       2266.0274
  -5812580.18043  -4484276.76842  24410423.9434   24410428.6614   24410423.1524
     -3778.4074      -2944.2084
  -7897457.58243  -6103605.12842  24272352.2744   24272355.6954   24272352.0174
      3662.2414       2853.7334
 -19967830.90543 -15489572.91342  21782423.9994   21782424.7404   21782423.0454
     -2517.7434      -1961.8624
 -17385175.88343 -13490169.17242  21914830.1484   21914832.9164   21914829.9084
       949.7034        740.0464
  -4476037.36843  -3455727.67542  24558504.4594   24558509.1374   24558504.3814
      -194.8094       -151.8074
 -12530458.78943  -9712062.43842  23380108.3254   23380108.7574   23380107.6994
     -3100.6274      -2416.0444
  -4463644.98843  -3472501.54142  23575499.2204   23575501.5224   23575498.2134
      3138.0714       2445.2554
 05  9 20  0 31  0.0000000  0 10G28G11G 1G 3G20G19G14G 9G22G31
 -11302956.96643  -8797089.77842  23647830.2104   23647832.1754   23647828.9484
      -356.4814       -277.7784
 -25607286.63444 -19902170.26642  20867984.6834   20867986.0014   20867984.0214
      1500.0204       1168.8474
 -15812226.76343 -12271903.93842  22798599.7564   22798603.2584   22798599.6544
      2894.4784       2255.4204
  -5699167.62843  -4395903.36742  24432005.9024   24432010.6454   24432005.6134
     -3782.6534      -2947.5244
  -8007246.53043  -6189154.90642  24251458.8334   24251462.2434   24251458.9324
      3656.5904       2849.3014
 -19892074.65643 -15430542.08942  21796840.2374   21796841.0474   21796839.2694
     -2532.9944      -1973.7694
 -17413352.55043 -13512124.99842  21909468.7594   21909470.7544   21909468.2374
       928.3334        723.3714
  -4469864.59843  -3450917.72742  24559681.8574   24559682.6314   24559681.4854
      -217.2324       -169.2674
 -12437330.23243  -9639494.71742  23397829.7214   23397831.7954   23397829.4814
     -3108.3344      -2422.0814
  -4557598.84843  -3545712.34542  23557620.0474   23557622.1254   23557619.3694
      3125.3204       2435.3044
 05  9 20  0 31 30.0000000  0 10G28G11G 1G 3G20G19G14G 9G22G31
 -11291998.33343  -8788550.57942  23649915.6924   23649916.1394   23649914.6634
      -375.1674       -292.3684
 -25652103.93644 -19937092.83542  20859456.1264   20859457.9734   20859455.9354
      1486.8464       1158.5774
 -15898901.04443 -12339442.31542  22782105.9254   22782109.6354   22782105.7334
      2882.6434       2246.2024
  -5585664.58443  -4307459.47842  24453604.2304   24453608.3844   24453604.1894
     -3785.3374      -2949.6094
  -8116896.45243  -6274596.35142  24230592.4894   24230597.0914   24230591.9794
      3652.1604       2845.8144
 -19815894.26643 -15371180.76242  21811337.4594   21811337.6614   21811336.0944
     -2546.7454      -1984.4794
 -17440918.76343 -13533605.15242  21904223.4214   21904225.4574   21904222.7044
       908.2894        707.7574
  -4463044.45243  -3445603.33242  24560977.7044   24560982.7694   24560977.6754
      -238.5064       -185.8504
 -12344004.03643  -9566773.02742  23415589.7154   23415591.6554   23415589.6154
     -3114.5064      -2426.8904
  -4651201.37343  -3618649.37642  23539808.2044   23539811.3494   23539808.1664
      3113.7934       2426.3214
 05  9 20  0 32  0.0000000  0 10G28G11G 1G 3G20G19G14G 9G22G31
 -11280466.50343  -8779564.73342  23652110.7974   23652111.2944   23652110.2434
      -392.8354       -306.1094
 -25696515.11644 -19971698.94742  20851004.7434   20851006.8194   20851004.5674
      1474.5394       1148.9924
 -15985203.50743 -12406690.96942  22765683.2224   22765686.9504   22765682.4254
      2871.5454       2237.5644
  -5472073.37743  -4218946.85842  24475221.1154   24475224.2044   24475219.8224
     -3786.8064      -2950.7524
  -8226406.12943  -6359928.51742  24209754.2064   24209759.0264   24209753.6134
      3648.9574       2843.3494
 -19739291.48543 -15311490.29442  21825913.9274   21825914.9484   21825913.0214
     -2559.5454      -1994.4544
 -17467873.62343 -13554608.91842  21899094.1794   21899096.4614   21899093.3424
       889.2284        692.8964
  -4455577.08243  -3439784.61242  24562399.8134   24562401.7404   24562397.8234
      -258.8754       -201.7174
 -12250482.89143  -9493899.41342  23433386.3504   23433387.5564   23433387.0294
     -3119.5844      -2430.8384
  -4744450.28943  -3691310.86242  23522063.2124   23522065.0324   23522062.4624
      3103.3004       2418.1474
 05  9 20  0 32 30.0000000  0 10G28G11G 1G 3G20G19G14G 9G22G31
 -11268361.90643  -8770132.58942  23654413.8314   23654415.2504   23654413.0834
      -413.0274       -321.8514
 -25740518.99144 -20005987.68142  20842631.5754   20842632.8754   20842630.7974
      1459.8244       1137.5224
 -16071131.37743 -12473647.72142  22749331.2674   22749335.3954   22749330.2364
      2857.9064       2226.9294
  -5358396.21843  -4130367.28242  24496852.3584   24496856.5494   24496853.0844
     -3790.9204      -2953.9574
  -8335773.92743  -6445150.12842  24188942.4574   24188944.5614   24188941.6884
      3643.0944       2838.7624
 -19662268.31943 -15251472.25742  21840571.1974   21840572.0094   21840569.6934
     -2574.5364      -2006.1384
 -17494215.61443 -13575135.13142  21894080.6184   21894083.3094   21894080.3664
       867.7474        676.1574
  -4447462.52843  -3433461.58542  24563943.2844   24563946.6364   24563943.5964
      -281.1284       -219.0604
 -12156768.54143  -9420875.23642  23451219.7684   23451219.9484   23451220.0644
     -3127.1094      -2436.7484
  -4837342.69343  -3763694.55842  23504388.0684   23504388.9024   23504385.3414
      3090.2804       2408.0134
 05  9 20  0 33  0.0000000  0 10G28G11G 1G 3G20G19G14G 9G22G31
 -11255685.19743  -8760254.63242  23656825.2964   23656827.4304   23656824.2944
      -431.7804       -336.4374
 -25784114.24744 -20039958.00342  20834335.3304   20834336.9664   20834334.8704
      1446.6944       1127.3004
 -16156681.73943 -12540310.32242  22733051.8614   22733055.3714   22733051.5944
      2845.6804       2217.3924
  -5244635.19643  -4041722.34942  24518500.9894   24518505.5424   24518500.8624
     -3793.0704      -2955.6344
  -8444998.10343  -6530259.82142  24168157.5804   24168160.5864   24168156.6044
      3638.7454       2835.3754
 -19584826.24343 -15191127.80342  21855307.4324   21855308.6244   21855306.5994
     -2588.0774      -2016.6804
 -17519944.08543 -13595183.27642  21889185.4274   21889186.9364   21889184.6874
       847.7454        660.5894
  -4438700.88443  -3426634.30842  24565611.4884   24565613.8254   24565610.3534
      -302.3904       -235.6324
 -12062862.33943  -9347701.58442  23469089.7934   23469088.5504   23469089.8104
     -3132.9964      -2441.2774
  -4929875.58043  -3835798.08642  23486777.6544   23486780.2154   23486777.7884
      3078.7014       2398.9834
 05  9 20  0 33 30.0000000  0 10G28G11G 1G 3G20G19G14G 9G22G31
 -11242437.17843  -8749931.50342  23659346.1124   23659348.9394   23659346.3724
      -451.2454       -351.6134
 -25827299.65044 -20073608.96842  20826116.9974   20826119.0694   20826116.7814
      1432.4354       1116.1724
 -16241852.03243 -12606676.75742  22716844.4074   22716847.4534   22716843.3104
      2832.3794       2207.0414
  -5130792.51943  -3953013.80842  24540163.4294   24540168.2074   24540162.6474
     -3796.5624      -2958.3694
  -8554077.08243  -6615256.36642  24147401.0014   24147404.9084   24147400.3774
      3633.2844       2831.1174
 -19506967.34343 -15130458.54542  21870123.8524   21870124.5734   21870122.4744
     -2602.4504      -2027.8914
 -17545058.24143 -13614752.73342  21884406.4094   21884408.1764   21884405.4534
       826.6394        644.1194
  -4429292.54543  -3419303.15242  24567401.0994   24567404.7634   24567400.8064
      -324.3614       -252.7524
 -11968766.85243  -9274380.41442  23486995.6244   23486995.9724   23486995.4014
     -3139.9564      -2446.7114
  -5022046.46043  -3907619.55542  23469238.8884   23469240.9634   23469238.1174
      3065.9814       2389.0704
 05  9 20  0 34  0.0000000  0 10G28G11G 1G 3G20G19G14G 9G22G31
 -11228618.58543  -8739163.77842  23661976.6714   23661979.5344   23661976.4304
      -470.7394       -366.8104
 -25870074.07344 -20106939.68842  20817977.5604   20817979.4834   20817977.1394
      1418.5764       1105.3854
 -16326639.69843 -12672745.05242  22700710.0364   22700713.1744   22700709.3494
      2819.4354       2196.9504
  -5016870.43843  -3864243.38642  24561842.6204   24561847.9764   24561842.5724
     -3799.1354      -2960.3684
  -8663009.46643  -6700138.71342  24126671.9704   24126674.4554   24126671.8594
      3628.1504       2827.1244
 -19428693.26643 -15069465.77642  21885018.8854   21885019.9064   21885017.8504
     -2616.3694      -2038.7244
 -17569557.22543 -13633842.84142  21879743.7334   21879746.4714   21879743.3964
       805.8734        627.9564
  -4419237.88543  -3411468.36742  24569315.1684   24569317.4184   24569314.2544
      -346.3734       -269.9084
 -11874483.55343  -9200912.90942  23504936.4654   23504936.5714   23504936.5744
     -3146.2924      -2451.6404
  -5113852.67743  -3979156.87042  23451766.8284   23451771.4624   23451767.9064
      3053.7984       2379.5974
 05  9 20  0 34 30.0000000  0 10G28G11G 1G 3G20G19G14G 9G22G31
 -11214230.46143  -8727952.25742  23664714.1674   23664715.6534   23664713.2304
      -489.4874       -381.3954
 -25912436.41544 -20139949.30342  20809916.5904   20809918.1364   20809916.1764
      1404.7464       1094.6094
 -16411042.18843 -12738513.20342  22684648.3764   22684652.1544   22684648.1444
      2806.4744       2186.8654
  -4902871.30443  -3775412.93042  24583536.6274   24583541.4994   24583536.2314
     -3801.5274      -2962.2514
  -8771793.92443  -6784905.77342  24105969.5154   24105970.5274   24105969.0494
      3623.2554       2823.2984
 -19350006.47443 -15008151.40642  21899991.9534   21899993.8114   21899991.4104
     -2630.0744      -2049.4234
 -17593440.14543 -13652452.89442  21875199.8554   21875201.2774   21875199.3224
       785.3654        611.9764
  -4408537.10943  -3403130.09742  24571350.2094   24571353.4074   24571350.2994
      -367.8864       -286.6734
 -11780014.51943  -9127300.66842  23522913.8674   23522914.5664   23522913.4444
     -3152.4764      -2456.4464
  -5205291.42843  -4050407.85142  23434368.4244   23434371.2274   23434367.5334
      3041.4804       2369.9854
 05  9 20  0 35  0.0000000  0 10G28G11G 1G 3G20G19G14G 9G22G31
 -11199273.26243  -8716297.29942  23667560.2284   23667562.4744   23667559.7174
      -508.4854       -396.2324
 -25954385.40244 -20172636.82142  20801934.1094   20801935.3494   20801933.3194
      1390.9034       1083.8114
 -16495056.64743 -12803979.00142  22668661.3704   22668664.1164   22668660.4984
      2793.4594       2176.7114
  -4788797.11343  -3686523.96542  24605243.9414   24605247.7194   24605244.0394
     -3804.2154      -2964.3274
  -8880428.34543  -6869555.91542  24085297.7454   24085302.0764   24085297.7054
      3618.1294       2819.2934
 -19270908.42443 -14946516.58142  21915044.0684   21915045.0234   21915042.8494
     -2644.0124      -2060.2774
 -17616706.00543 -13670582.12242  21870771.7814   21870774.0494   21870771.1734
       764.7464        595.9054
  -4397190.49943  -3394288.54942  24573509.2554   24573512.9694   24573509.4054
      -389.4114       -303.4414
 -11685361.42343  -9053545.01142  23540924.7864   23540925.8364   23540925.1074
     -3158.7274      -2461.3834
  -5296359.85843  -4121370.26042  23417037.5654   23417041.8604   23417037.0274
      3028.9244       2360.1924
 05  9 20  0 35 30.0000000  0 10G28G11G 1G 3G20G19G14G 9G22G31
 -11183748.05943  -8704199.75342  23670515.8694   23670515.8254   23670514.7514
      -527.2934       -410.8464
 -25995920.04944 -20205001.48042  20794030.3464   20794031.3864   20794029.7064
      1377.3704       1073.2724
 -16578680.67543 -12869140.55742  22652747.6774   22652751.4264   22652747.7034
      2780.6694       2166.7544
  -4674650.42143  -3597578.51042  24626965.2894   24626968.6094   24626964.7004
     -3806.2504      -2965.9144
  -8988911.30843  -6954088.04742  24064653.6344   24064658.8134   24064652.9424
      3613.1974       2815.4724
 -19191401.25243 -14884562.95642  21930173.4654   21930174.7674   21930172.7934
     -2657.3044      -2070.6284
 -17639353.91043 -13688229.83242  21866462.2754   21866464.4474   21866461.6074
       744.4604        580.0964
  -4385198.46143  -3384944.11342  24575793.7894   24575795.4014   24575792.8614
      -410.7444       -320.0604
 -11590526.52643  -8979647.69342  23558971.1004   23558972.6964   23558971.1394
     -3164.2884      -2465.6934
  -5387055.44043  -4192042.13142  23399780.7454   23399781.8494   23399779.9704
      3016.7974       2350.7404
 05  9 20  0 36  0.0000000  0 10G28G11G 1G 3G20G19G14G 9G22G31
 -11167655.88643  -8691660.38442  23673576.4504   23673578.6674   23673575.4014
      -546.2574       -425.6884
 -26037039.05744 -20237042.26042  20786205.1664   20786206.9364   20786204.7224
      1363.2544       1062.2674
 -16661911.43543 -12933995.67042  22636908.7334   22636913.0924   22636908.6124
      2767.2794       2156.3064
  -4560433.12643  -3508578.05242  24648700.5934   24648703.9154   24648700.4114
     -3808.9164      -2967.9954
  -9097241.51843  -7038501.13942  24044039.4874   24044040.4774   24044038.6884
      3607.9364       2811.3834
 -19111486.86743 -14822292.02042  21945382.2374   21945381.7444   21945380.8974
     -2671.0574      -2081.3524
 -17661383.07443 -13705395.39142  21862269.9994   21862272.2024   21862269.7254
       723.3754        563.6584
  -4372561.15343  -3375096.86942  24578195.6164   24578200.4094   24578196.0204
      -432.5274       -337.0384
 -11495511.74543  -8905610.20242  23577052.7164   23577052.4794   23577051.9154
     -3170.6294      -2470.6224
  -5477375.43643  -4262421.35542  23382591.6314   23382595.0764   23382591.3734
      3003.9114       2340.7174
 05  9 20  0 36 30.0000000  0 10G28G11G 1G 3G20G19G14G 9G22G31
 -11150997.39943  -8678679.74542  23676746.8034   23676748.3854   23676746.1384
      -564.1674       -439.6144
 -26077741.46144 -20268758.42042  20778460.4774   20778461.5104   20778459.7704
      1350.3814       1052.2544
 -16744746.54243 -12998542.48942  22621146.2384   22621150.4634   22621146.4404
      2755.1064       2146.8584
  -4446147.67843  -3419524.46842  24670447.1644   24670452.1384   24670447.4274
     -3810.0254      -2968.8534
  -9205417.23243  -7122793.89842  24023453.8524   24023455.7764   24023452.9374
      3603.9044       2808.2364
 -19031167.08643 -14759705.20042  21960665.7824   21960666.7814   21960664.7934
     -2683.4954      -2091.0234
 -17682793.01543 -13722078.45242  21858196.2154   21858197.9814   21858196.0014
       703.9614        548.5574
  -4359279.11543  -3364747.23842  24580724.7184   24580726.2704   24580723.2084
      -453.0054       -352.9884
 -11400319.03643  -8831434.07342  23595167.4384   23595167.2084   23595167.7584
     -3175.3744      -2474.3124
  -5567317.37043  -4332505.97442  23365476.7204   23365479.2074   23365475.7254
      2992.4154       2331.7554
 05  9 20  0 37  0.0000000  0 10G28G11G 1G 3G20G19G14G 9G22G31
 -11133773.43943  -8665258.49242  23680025.1074   23680025.7824   23680024.1994
      -583.2754       -454.5014
 -26118025.98944 -20300148.96042  20770793.7954   20770795.6264   20770793.4814
      1336.2774       1041.2634
 -16827183.14143 -13062778.78242  22605459.3864   22605463.2474   22605458.8614
      2741.6244       2136.3384
  -4331796.07943  -3330419.36642  24692208.7094   24692212.0684   24692207.7354
     -3812.2734      -2970.6174
  -9313436.73343  -7206964.85842  24002897.9794   24002903.5244   24002897.0364
      3598.4764       2804.0174
 -18950443.71043 -14696803.88342  21976026.0334   21976027.7974   21976025.3014
     -2697.1074      -2101.6324
 -17703582.70443 -13738278.19742  21854240.0674   21854241.9394   21854239.2944
       683.0734        532.2714
  -4345352.72443  -3353895.51842  24583374.1914   24583377.6164   24583373.2514
      -474.2484       -369.5364
 -11304950.23243  -8757120.72942  23613315.6164   23613315.9834   23613315.8424
     -3181.4544      -2479.0404
  -5656878.31443  -4402293.72642  23348434.4734   23348437.9184   23348432.8914
      2979.4084       2321.6204
 05  9 20  0 37 30.0000000  0 10G28G11G 1G 3G20G19G14G 9G22G31
 -11115984.91843  -8651397.31842  23683410.1544   23683411.2434   23683409.3264
      -602.3174       -469.3144
 -26157891.54344 -20331213.02642  20763207.5274   20763209.4174   20763207.3554
      1321.9274       1030.0724
 -16909218.82643 -13126702.67642  22589848.6604   22589851.4204   22589848.0734
      2727.7864       2125.5534
  -4217380.75343  -3241264.57742  24713980.7554   24713985.0034   24713980.5924
     -3814.8604      -2972.6194
  -9421298.51243  -7291012.94342  23982374.9474   23982375.0184   23982373.6054
      3592.6944       2799.5204
 -18869319.28243 -14633590.06742  21991463.4744   21991465.2544   21991463.0424
     -2710.8364      -2112.3314
 -17723751.44943 -13753994.08642  21850401.6964   21850404.0094   21850401.3354
       662.0064        515.8594
  -4330782.45443  -3342542.09742  24586145.9894   24586150.1744   24586146.4484
      -496.1874       -386.6444
 -11209407.18043  -8682671.60242  23631496.6094   23631497.1744   23631495.8134
     -3187.5484      -2483.8094
  -5746055.64843  -4471782.54842  23331464.2214   23331466.6834   23331464.2414
      2966.2144       2311.3244
 05  9 20  0 38  0.0000000  0 10G28G11G 1G 3G20G19G14G 9G22G31
 -11097632.83243  -8637097.00042  23686901.9724   23686904.3124   23686901.3884
      -621.6364       -484.3824
 -26197337.05444 -20361949.78442  20755702.2964   20755703.3434   20755701.3124
      1307.2164       1018.6164
 -16990851.15943 -13190312.26142  22574313.8874   22574317.4514   22574313.3904
      2713.7474       2114.6124
  -4102903.82443  -3152061.79942  24735766.2444   24735768.5074   24735764.9414
     -3817.3364      -2974.5444
  -9529001.42843  -7374937.26942  23961879.4514   23961880.4084   23961878.6754
      3586.8834       2794.9734
 -18787795.56143 -14570065.10242  22006977.3774   22006978.3114   22006976.5774
     -2724.6664      -2123.1154
 -17743298.84643 -13769225.81442  21846682.1734   21846684.2804   21846681.4624
       640.6664        499.2284
  -4315568.88943  -3330687.37442  24589042.0074   24589044.9214   24589041.9424
      -518.4824       -404.0144
 -11113692.00443  -8608088.34642  23649711.1354   23649711.2814   23649711.0404
     -3193.8764      -2488.7304
  -5834846.70943  -4540970.40142  23314566.3054   23314570.1534   23314566.9134
      2952.7654       2300.8754
 05  9 20  0 38 30.0000000  0 10G28G11G 1G 3G20G19G14G 9G22G31
 -11078718.25943  -8622358.36442  23690500.3414   23690504.1344   23690500.5854
      -639.2714       -498.1194
 -26236361.29344 -20392358.28242  20748276.2844   20748277.2744   20748275.3404
      1294.1204       1008.4044
 -17072077.35543 -13253605.38642  22558857.6434   22558861.2614   22558857.5324
      2701.0234       2104.7054
  -3988367.27643  -3062812.55242  24757559.6704   24757564.4294   24757560.1844
     -3818.6904      -2975.6064
  -9636543.46543  -7458736.19942  23941414.3594   23941418.0934   23941413.0854
      3582.3404       2791.4444
 -18705874.44243 -14506230.47542  22022565.9684   22022567.9184   22022565.5264
     -2736.9664      -2132.6994
 -17762224.03743 -13783972.70742  21843080.9194   21843082.8194   21843080.6684
       620.7534        483.7114
  -4299712.36943  -3318331.63442  24592060.2864   24592062.4624   24592058.7234
      -539.1184       -420.0864
 -11017806.26943  -8533372.18242  23667957.2834   23667957.5654   23667957.1694
     -3198.7154      -2492.5034
  -5923248.61243  -4609855.01242  23297746.1334   23297748.4584   23297745.6934
      2940.3874       2291.2174
 05  9 20  0 39  0.0000000  0 10G28G11G 1G 3G20G19G14G 9G22G31
 -11059242.23643  -8607182.26342  23694207.1094   23694209.2374   23694206.9694
      -658.6214       -513.2124
 -26274963.31444 -20422437.77142  20740929.9004   20740931.5594   20740929.3034
      1279.5054        997.0104
 -17152894.82843 -13316580.01842  22543478.3104   22543482.0784   22543477.9004
      2686.9644       2093.7414
  -3873773.43143  -2973518.66642  24779367.3684   24779371.6914   24779366.3624
     -3820.9604      -2977.3704
  -9743923.17643  -7542408.64542  23920980.3404   23920983.4034   23920981.6654
      3576.5204       2786.8724
 -18623557.74943 -14442087.61142  22038230.4504   22038232.2634   22038229.8454
     -2750.5844      -2143.3114
 -17780526.23443 -13798234.13942  21839597.7814   21839600.1504   21839597.0424
       599.5654        467.2004
  -4283213.46143  -3305475.38142  24595198.5894   24595201.3614   24595198.1644
      -560.7214       -436.9354
 -10921751.92643  -8458524.61742  23686236.4944   23686236.7794   23686235.1734
     -3204.7064      -2497.1834
  -6011258.57843  -4678434.17942  23280998.7054   23281000.9544   23280997.3514
      2926.8774       2280.6604
 05  9 20  0 39 30.0000000  0 10G28G11G 1G 3G20G19G14G 9G22G31
 -11039205.72843  -8591569.39842  23698019.6184   23698022.1264   23698018.6764
      -676.1154       -526.8554
 -26313142.04344 -20452187.42942  20733664.8544   20733666.2344   20733664.2094
      1266.7464        987.0844
 -17233301.09943 -13379234.23342  22528178.3014   22528181.1544   22528177.5754
      2674.6184       2084.1394
  -3759124.65143  -2884182.00042  24801184.1384   24801188.8254   24801184.0794
     -3821.1824      -2977.5394
  -9851139.16943  -7625953.52442  23900577.1294   23900579.3264   23900577.2834
      3572.4104       2783.6914
 -18540847.74143 -14377638.27542  22053970.7514   22053971.1204   22053969.2904
     -2762.2834      -2152.4144
 -17798205.10343 -13812009.87042  21836233.6164   21836236.2714   21836232.7824
       580.1194        452.0634
  -4266072.69443  -3292118.93742  24598460.7534   24598463.5664   24598460.1794
      -580.9284       -452.6684
 -10825531.20743  -8383547.44742  23704545.5394   23704547.7814   23704544.3734
     -3208.9554      -2500.4764
  -6098874.04143  -4746705.96642  23264325.0094   23264328.7524   23264324.1514
      2915.1524       2271.5574
 05  9 20  0 40  0.0000000  0 10G28G11G 1G 3G20G19G14G 9G22G31
 -11018609.71143  -8575520.55942  23701939.2084   23701940.4064   23701938.4024
      -695.6214       -542.0634
 -26350896.12844 -20481606.19642  20726480.7084   20726481.7854   20726480.0384
      1251.5064        975.1814
 -17313293.78043 -13441566.18142  22512955.2634   22512959.6754   22512954.9134
      2659.6024       2072.3934
  -3644423.14443  -2794804.21342  24823010.9754   24823015.7254   24823010.1254
     -3824.2524      -2979.9334
  -9958189.90443  -7709369.63642  23880207.0084   23880210.9424   23880206.4514
      3565.7634       2778.5074
 -18457746.33643 -14312883.94642  22069783.9734   22069784.7684   22069782.8474
     -2776.4544      -2163.4804
 -17815259.86643 -13825299.28742  21832988.2364   21832990.0874   21832987.3654
       558.1554        434.9184
  -4248290.93343  -3278263.04342  24601845.5794   24601847.9074   24601845.7474
      -603.3854       -470.1764
 -10729145.90743  -8308442.05242  23722887.1624   23722887.5034   23722887.4234
     -3215.3524      -2505.4874
  -6186092.66843  -4814668.52442  23247726.4534   23247731.0514   23247727.7964
      2900.7624       2260.3194
 05  9 20  0 40 30.0000000  0 10G28G11G 1G 3G20G19G14G 9G22G31
 -10997455.04543  -8559036.41242  23705964.7134   23705965.9174   23705963.9664
      -714.2184       -556.5304
 -26388224.31644 -20510693.09242  20719377.2094   20719378.5244   20719376.6764
      1237.5954        964.3704
 -17392870.01543 -13503573.62342  22497813.0394   22497816.5284   22497813.1514
      2645.9064       2061.7654
  -3529670.55543  -2705386.62542  24844846.9594   24844852.4234   24844846.1244
     -3825.7414      -2981.0844
 -10065073.39243  -7792655.42142  23859867.8024   23859870.4634   23859865.6654
      3560.4454       2774.3814
 -18374255.43743 -14247826.11942  22085672.0934   22085672.2164   22085670.8914
     -2789.0284      -2173.2634
 -17831689.55443 -13838101.63942  21829861.8984   21829863.7414   21829861.3794
       537.5694        418.8934
  -4229868.42143  -3263907.81842  24605350.3154   24605353.4604   24605349.7084
      -624.2534       -486.4324
 -10632597.51043  -8233209.53042  23741259.8484   23741260.4764   23741260.6164
     -3220.5004      -2509.4724
  -6272911.35743  -4882319.45142  23231207.4164   23231209.1614   23231207.2954
      2887.6984       2250.1334
 05  9 20  0 41  0.0000000  0 10G28G11G 1G 3G20G19G14G 9G22G31
 -10975743.15343  -8542118.04842  23710098.5794   23710098.2794   23710095.6284
      -732.1294       -570.4934
 -26425126.07244 -20539447.70642  20712354.7824   20712356.7124   20712354.2864
      1223.4944        953.3774
 -17472027.64243 -13565254.86842  22482750.5504   22482753.1194   22482748.9124
      2632.2424       2051.1014
  -3414869.68743  -2615931.43442  24866694.1134   24866697.6654   24866693.0534
     -3826.5194      -2981.7024
 -10171788.62343  -7875810.13342  23839559.8404   23839563.5744   23839559.8094
      3555.0874       2770.2294
 -18290377.42343 -14182466.64342  22101633.3324   22101634.4444   22101632.0204
     -2801.8204      -2183.2344
 -17847494.16043 -13850416.90742  21826854.4494   21826856.4984   21826854.1124
       516.9284        402.8054
  -4210805.99443  -3249053.97942  24608977.5914   24608980.2904   24608978.1974
      -645.8064       -503.2244
 -10535888.20843  -8157851.61442  23759662.6774   23759664.4054   23759662.5184
     -3225.8244      -2513.6364
  -6359327.81243  -4949656.96542  23214762.9634   23214764.8374   23214761.9464
      2874.5054       2239.8514
 05  9 20  0 41 30.0000000  0 10G28G11G 1G 3G20G19G14G 9G22G31
 -10953474.90843  -8524766.17042  23714335.3074   23714335.8044   23714334.5374
      -751.6554       -585.7274
 -26461599.80043 -20567868.78942  20705413.7774   20705415.8244   20705413.5734
      1208.6954        941.8474
 -17550763.88043 -13626607.74942  22467767.0924   22467770.1744   22467765.8584
      2617.5214       2039.6414
  -3300022.48043  -2526440.13342  24888547.9654   24888552.5584   24888546.5174
     -3828.8034      -2983.4714
 -10278333.71443  -7958832.25342  23819285.2644   23819287.3544   23819285.5884
      3548.5514       2765.1174
 -18206114.08043 -14116806.91142  22117667.8764   22117668.7654   22117667.0254
     -2815.2574      -2193.6894
 -17862672.81143 -13862244.41242  21823965.9694   21823967.8204   21823965.2924
       495.4964        386.1114
  -4191104.21043  -3233701.94542  24612727.8694   24612731.7734   24612728.3524
      -667.3504       -520.0154
 -10439019.57143  -8082369.57142  23778098.0474   23778096.9204   23778097.1434
     -3231.5994      -2518.1284
  -6445339.12343  -5016678.77742  23198393.9984   23198396.9484   23198394.8814
      2860.3594       2228.8584
 05  9 20  0 42  0.0000000  0 10G28G11G 1G 3G20G19G14G 9G22G31
 -10930651.76843  -8506981.91142  23718677.3764   23718679.8114   23718676.6414
      -770.1094       -600.0884
 -26497644.86444 -20595955.85442  20698555.4044   20698556.4014   20698554.6844
      1194.1614        930.5014
 -17629076.58743 -13687630.63042  22452864.0994   22452867.6514   22452863.5924
      2603.1944       2028.4534
  -3185131.44643  -2436914.67142  24910410.6894   24910416.9594   24910410.7304
     -3831.0814      -2985.2544
 -10384707.34643  -8041720.74942  23799042.2674   23799044.5854   23799042.0194
      3542.8864       2760.7034
 -18121467.41543 -14050848.48442  22133775.5024   22133777.2614   22133774.6904
     -2828.1684      -2203.7694
 -17877225.46143 -13873584.12742  21821196.9474   21821199.0174   21821195.9494
       474.4914        369.7224
  -4170764.00343  -3217852.43042  24616597.2124   24616600.5274   24616596.5204
      -688.7424       -536.6754
 -10341993.77843  -8006765.05342  23796560.6364   23796560.6774   23796560.5644
     -3236.9964      -2522.3374
  -6530942.85243  -5083382.95742  23182104.8854   23182107.5154   23182104.3274
      2846.6294       2218.1294
 05  9 20  0 42 30.0000000  0 10G28G11G 1G 3G20G19G14G 9G22G31
 -10907274.78043  -8488766.09142  23723126.7464   23723127.3244   23723126.3894
      -789.2744       -615.0064
 -26533260.14344 -20623708.01442  20691777.5644   20691779.0014   20691776.9594
      1179.2424        918.8984
 -17706963.21243 -13748321.48742  22438043.0484   22438045.8594   22438041.9024
      2588.3244       2016.8834
  -3070198.47743  -2347356.57542  24932283.1154   24932287.1094   24932281.6174
     -3832.5574      -2986.4084
 -10490908.08643  -8124474.54142  23778834.3764   23778836.3864   23778832.9644
      3536.3104       2755.5534
 -18036439.96343 -13984593.34842  22149955.6654   22149957.0194   22149954.7324
     -2841.2874      -2213.9854
 -17891151.44143 -13884435.52842  21818546.0274   21818548.7024   21818545.8414
       452.9944        352.9884
  -4149786.13543  -3201506.04142  24620589.6684   24620593.4044   24620588.4164
      -710.6244       -553.7294
 -10244812.65343  -7931039.51042  23815053.6334   23815054.0554   23815052.7314
     -3242.7604      -2526.8064
  -6616136.26443  -5149767.43442  23165893.3194   23165896.2234   23165892.3864
      2832.1794       2206.9004
 05  9 20  0 43  0.0000000  0 10G28G11G 1G 3G20G19G14G 9G22G31
 -10883344.81043  -8470119.35542  23727680.0984   23727680.7464   23727679.9284
      -805.6034       -627.7414
 -26568444.24143 -20651124.19142  20685081.9904   20685083.9234   20685081.8244
      1166.7974        909.1994
 -17784421.04843 -13808678.23242  22423303.3744   22423306.9894   22423302.5444
      2575.9154       2007.2184
  -2955225.82043  -2257767.49842  24954161.6854   24954165.6734   24954160.2834
     -3832.1154      -2986.0644
 -10596933.91843  -8207092.01842  23758657.5064   23758660.9354   23758656.0924
      3532.2764       2752.4364
 -17951033.35043 -13918042.75042  22166208.2494   22166209.7434   22166207.2884
     -2852.0434      -2222.3634
 -17904450.05943 -13894798.07542  21816016.1394   21816017.6144   21816015.5824
       433.9654        338.1634
  -4128171.13143  -3184663.20242  24624703.4854   24624704.7284   24624702.7454
      -729.7774       -568.6544
 -10147477.62743  -7855194.02942  23833575.2734   23833576.1884   23833574.1374
     -3245.7694      -2529.2104
  -6700916.68143  -5215830.09842  23149760.4754   23149763.3404   23149760.4844
      2820.1824       2197.5614
 05  9 20  0 43 30.0000000  0 10G28G11G 1G 3G20G19G14G 9G22G31
 -10858863.27343  -8451042.83742  23732338.8724   23732340.7464   23732338.8424
      -825.1134       -642.8994
 -26603196.37043 -20678203.77442  20678468.9484   20678470.5964   20678468.6674
      1151.4544        897.2394
 -17861447.82843 -13868699.07842  22408644.9614   22408648.7234   22408644.6404
      2560.4624       1995.1674
  -2840215.73543  -2168149.25442  24976047.3904   24976051.0014   24976046.4944
     -3833.9164      -2987.4674
 -10702783.61043  -8289572.23842  23738513.7854   23738517.6684   23738513.4644
      3525.6734       2747.2714
 -17865249.87943 -13851198.50842  22182532.4974   22182533.1994   22182531.4874
     -2865.5124      -2232.8614
 -17917120.95343 -13904671.49542  21813605.0694   21813607.0254   21813604.3744
       412.0814        321.1124
  -4105920.00643  -3167324.67942  24628936.5584   24628939.2454   24628936.5334
      -752.1814       -586.1134
 -10049990.98343  -7779230.42942  23852125.3964   23852126.1844   23852125.5284
     -3251.7374      -2533.8364
  -6785281.67743  -5281569.05542  23133705.9134   23133709.1244   23133705.3854
      2805.4464       2186.0764
 05  9 20  0 44  0.0000000  0 10G28G11G 1G 3G20G19G14G 9G22G31
 -10833831.25243  -8431537.36542  23737102.3234   23737103.5214   23737100.9964
      -844.0794       -657.6844
 -26637515.23444 -20704945.74442  20671938.9474   20671940.1604   20671938.1834
      1136.4044        885.5244
 -17938040.93143 -13928381.99642  22394070.1054   22394073.5514   22394069.8524
      2545.5634       1983.5614
  -2725170.07343  -2078503.31042  24997939.3534   24997941.7814   24997939.8454
     -3835.8504      -2988.9704
 -10808455.53143  -8371913.97942  23718407.3794   23718408.6614   23718405.5594
      3519.1864       2742.2304
 -17779091.25543 -13784061.92642  22198927.4774   22198929.1814   22198926.5784
     -2878.3114      -2242.8334
 -17929164.02043 -13914055.68542  21811313.0194   21811315.2114   21811312.2544
       390.5884        304.3484
  -4083033.38043  -3149490.96042  24633292.6954   24633295.9444   24633292.2354
      -773.6444       -602.8414
  -9952354.42543  -7703149.98542  23870705.5754   23870706.4854   23870705.4594
     -3257.3584      -2538.1794
  -6869228.13743  -5346981.89342  23117731.0544   23117735.6354   23117731.7164
      2790.9504       2174.7464
 05  9 20  0 44 30.0000000  0 10G28G11G 1G 3G20G19G14G 9G22G31
 -10808250.21243  -8411604.10542  23741970.2924   23741970.7994   23741968.7234
      -861.8954       -671.6134
 -26671400.18644 -20731349.59842  20665490.2114   20665492.1084   20665489.8424
      1122.1494        874.4074
 -18014198.13043 -13987725.25542  22379578.0424   22379581.0404   22379576.8494
      2531.1034       1972.2994
  -2610091.23443  -1988831.51642  25019837.3974   25019842.1654   25019837.7354
     -3836.7654      -2989.6894
 -10913948.31543  -8454116.08542  23698331.4084   23698335.3114   23698332.1624
      3513.1384       2737.5134
 -17692559.87243 -13716634.89542  22215394.5154   22215395.1584   22215392.8804
     -2890.8804      -2252.6374
 -17940578.72343 -13922950.24442  21809139.9204   21809142.7934   21809139.8124
       369.8194        288.1734
  -4059512.32743  -3131162.88242  24637768.4284   24637771.1524   24637767.3274
      -794.5424       -619.1194
  -9854569.54743  -7626953.99242  23889313.1914   23889315.2224   23889313.9094
     -3262.0054      -2541.8154
  -6952753.83643  -5412066.84642  23101836.8614   23101839.9424   23101837.2954
      2776.9704       2163.8584
 05  9 20  0 45  0.0000000  0 11G28G11G 1G 3G20G 7G19G14G 9G22G31
 -10782121.35243  -8391243.94942  23746940.2944   23746943.8494   23746940.4534
      -880.0374       -685.7524
 -26704849.79743 -20757414.23342  20659125.0674   20659126.8974   20659124.7764
      1107.8224        863.2374
 -18089916.95443 -14046726.91442  22365168.5524   22365172.3104   22365168.3114
      2516.5874       1960.9764
  -2494981.58643  -1899135.70242  25041742.8664   25041746.5164   25041743.0704
     -3837.9534      -2990.6084
 -11019260.33843  -8536177.36542  23678291.2844   23678293.3894   23678290.4984
      3507.5144       2733.1294
  -1514905.76743  -1133877.14542  25676428.5184   25676433.5054   25676427.0174
      3312.8794       2581.4674
 -17605657.92643 -13648919.11242  22231931.1384   22231931.8204   22231929.6954
     -2902.9214      -2262.0084
 -17951364.75443 -13931354.93542  21807088.4844   21807090.5374   21807087.6584
       349.1634        272.0724
  -4035357.70943  -3112341.09142  24642364.6344   24642367.7614   24642364.4994
      -815.5414       -635.4814
  -9756638.59243  -7550644.16742  23907949.8174   23907949.7184   23907949.1094
     -3266.7134      -2545.4824
  -7035856.15943  -5476821.90442  23086024.4664   23086025.8314   23086021.9444
      2763.0724       2153.0244
 05  9 20  0 45 30.0000000  0 11G28G11G 1G 3G20G 7G19G14G 9G22G31
 -10755446.00243  -8370457.97642  23752018.0664   23752021.0524   23752017.3534
      -898.5974       -700.2144
 -26737863.23544 -20783138.98342  20652843.1384   20652844.6134   20652842.6004
      1092.8464        851.5614
 -18165194.76043 -14105384.93142  22350843.6374   22350847.9614   22350843.3414
      2501.5984       1949.2894
  -2379843.22943  -1809417.54742  25063652.1114   25063656.6954   25063653.0294
     -3838.5544      -2991.0924
 -11124389.84843  -8618096.44242  23658285.8774   23658287.7614   23658283.9404
      3500.9994       2728.0714
  -1614221.75143  -1211266.18242  25657529.2054   25657531.8404   25657528.4764
      3308.1144       2577.7374
 -17518387.51643 -13580916.21542  22248538.4334   22248539.1404   22248537.2154
     -2915.3264      -2271.6974
 -17961521.73143 -13939269.45242  21805155.4754   21805157.5644   21805155.2314
       327.7674        255.3914
  -4010570.10343  -3093026.06042  24647080.0894   24647085.2774   24647080.4894
      -837.1754       -652.3424
  -9658563.20943  -7474221.80142  23926612.9704   23926612.0274   23926612.7204
     -3271.8194      -2549.4764
  -7118532.40843  -5541244.96442  23070290.9484   23070293.7274   23070290.1114
      2748.5644       2141.7174
 05  9 20  0 46  0.0000000  0 11G28G11G 1G 3G20G 7G19G14G 9G22G31
 -10728225.39143  -8349247.12142  23757198.0614   23757199.7174   23757198.3894
      -916.4864       -714.1844
 -26770439.55043 -20808523.12342  20646643.7144   20646645.4804   20646643.4174
      1078.7134        840.5534
 -18240029.24643 -14163697.50042  22336603.9544   22336607.1164   22336603.2304
      2487.2114       1938.0744
  -2264678.25343  -1719678.63642  25085567.6474   25085573.0404   25085567.1304
     -3838.8544      -2991.3004
 -11229335.76143  -8699872.42242  23638314.3834   23638318.6234   23638314.1604
      3495.2754       2723.5684
  -1713404.41643  -1288551.36742  25638654.2374   25638658.9724   25638654.3164
      3304.1804       2574.6844
 -17430750.27243 -13512627.45642  22265215.3524   22265215.7284   22265213.7324
     -2927.2114      -2280.9564
 -17971049.18443 -13946693.43642  21803342.6084   21803344.4814   21803342.1004
       307.1624        239.3254
  -3985150.70643  -3073218.73142  24651917.9454   24651921.0114   24651917.3854
      -857.7714       -668.4024
  -9560345.50943  -7397688.45142  23945303.5234   23945303.6504   23945304.8114
     -3276.2404      -2552.9344
  -7200779.87243  -5605333.90142  23054639.1094   23054642.2354   23054637.5784
      2734.4974       2130.7454
 05  9 20  0 46 30.0000000  0 11G28G11G 1G 3G20G 7G19G14G 9G22G31
 -10700461.00143  -8327612.55242  23762481.4034   23762482.2794   23762481.0964
      -934.1184       -727.8654
 -26802577.57444 -20833565.73942  20640528.5284   20640529.7214   20640527.8224
      1064.2754        829.3004
 -18314418.22743 -14221662.92542  22322447.9554   22322451.4394   22322447.9054
      2472.4184       1926.5484
  -2149488.67543  -1629920.58942  25107488.7214   25107492.3374   25107488.4134
     -3839.8644      -2992.0934
 -11334096.30343  -8781503.97042  23618380.1494   23618381.6294   23618379.2984
      3489.0814       2718.7644
  -1812451.71343  -1365731.04442  25619806.5604   25619811.0064   25619806.5784
      3299.0724       2570.7014
 -17342748.90943 -13444054.99342  22281961.6374   22281962.2444   22281960.3644
     -2939.5774      -2290.5984
 -17979947.38143 -13953627.08542  21801649.1584   21801651.1944   21801648.4894
       286.3594        223.1254
  -3959100.33943  -3052919.74742  24656875.8484   24656879.0164   24656876.1104
      -878.3844       -684.4454
  -9461986.87943  -7321045.36942  23964019.8014   23964021.7834   23964020.4994
     -3280.8114      -2556.4634
  -7282595.98143  -5669086.71742  23039068.9664   23039072.4984   23039069.3314
      2720.2034       2119.6134
 05  9 20  0 47  0.0000000  0 12G28G11G 1G 3G20G 7G19G14G 9G24G22G31
 -10672153.99043  -8305555.13042  23767867.3624   23767869.1684   23767866.8664
      -952.5034       -742.2394
 -26834276.17744 -20858265.94342  20634495.8444   20634497.6974   20634495.6234
      1049.2954        817.6284
 -18388359.11143 -14279279.18542  22308377.5034   22308380.6364   22308376.6824
      2457.1394       1914.6484
  -2034276.63943  -1540144.98142  25129413.0584   25129416.2714   25129412.2384
     -3840.5374      -2992.6314
 -11438669.69243  -8862989.68142  23598480.5204   23598483.7214   23598479.5844
      3482.5934       2713.6974
  -1911361.26743  -1442803.38842  25600984.6304   25600988.7404   25600983.5844
      3294.6654       2567.2684
 -17254385.44843 -13375200.36342  22298776.2204   22298776.9964   22298775.3554
     -2951.4054      -2299.7984
 -17988215.58543 -13960069.83542  21800076.0024   21800077.8404   21800075.1784
       265.0174        206.5054
  -3932420.04943  -3032129.94542  24661953.9494   24661955.5634   24661953.7414
      -899.9934       -701.2894
  -1542441.55843  -1154798.12542  25421055.6994   25421057.7804   25421054.1264
      3351.5004       2611.5574
  -9363488.98743  -7244293.78442  23982763.9944   23982764.0104   23982762.7794
     -3285.4504      -2560.0984
  -7363978.07643  -5732501.32042  23023582.8854   23023587.4544   23023582.8124
      2705.5434       2108.2034
 05  9 20  0 47 30.0000000  0 12G28G11G 1G 3G20G 7G19G14G 9G24G22G31
 -10643305.83243  -8283076.04942  23773357.6714   23773360.3904   23773357.0294
      -970.6554       -756.3574
 -26865534.65443 -20882623.20142  20628547.8224   20628549.2614   20628547.2324
      1034.5564        806.1514
 -18461849.65043 -14336544.52242  22294391.7284   22294395.5874   22294391.4634
      2442.1474       1902.9684
  -1919044.55243  -1450353.74942  25151340.6034   25151344.5754   25151340.5734
     -3841.2654      -2993.1934
 -11543054.65843  -8944328.57442  23578616.6514   23578618.5324   23578616.1224
      3476.3334       2708.8624
  -2010130.92743  -1519766.73742  25582189.0664   25582192.8464   25582188.6044
      3290.0154       2563.6324
 -17165662.10543 -13306065.31042  22315659.2174   22315660.3444   22315658.7044
     -2963.2874      -2309.0534
 -17995853.61943 -13966021.54242  21798622.3374   21798624.1954   21798621.4414
       244.1284        190.2404
  -3905110.82143  -3010850.08042  24667149.4414   24667152.6034   24667147.4854
      -920.4594       -717.2354
  -1642978.91243  -1233138.86042  25401924.2084   25401927.1344   25401923.9014
      3351.2134       2611.3314
  -9264854.09843  -7167435.43642  24001532.8934   24001533.4174   24001532.4564
     -3290.0344      -2563.6354
  -7444923.51943  -5795575.69642  23008180.2924   23008183.4464   23008179.5714
      2690.9724       2096.8604
 05  9 20  0 48  0.0000000  0 12G28G11G 1G 3G20G 7G19G14G 9G24G22G31
 -10613917.78843  -8260176.28242  23778950.3904   23778952.7324   23778950.7664
      -988.6684       -770.4034
 -26896352.08543 -20906636.77942  20622683.3754   20622684.9724   20622683.0244
      1019.7014        794.5624
 -18534887.61343 -14393457.19842  22280493.8814   22280497.4264   22280493.6124
      2426.9584       1891.1354
  -1803794.53043  -1360548.58342  25173272.3234   25173275.3814   25173270.9884
     -3842.0424      -2993.8074
 -11647249.63643  -9025519.45342  23558789.5544   23558790.8644   23558787.9014
      3469.7854       2703.7294
  -2108758.58643  -1596619.41942  25563420.7914   25563424.6504   25563421.1164
      3285.3484       2560.0034
 -17076580.86143 -13236651.36042  22332610.9484   22332612.2304   22332609.8064
     -2975.2834      -2318.4134
 -18002861.41343 -13971482.14742  21797288.4934   21797290.3324   21797287.9644
       222.9654        173.7294
  -3877173.56243  -2989080.81242  24672466.2344   24672469.4604   24672465.9604
      -942.3744       -734.3224
  -1743487.49843  -1311457.17542  25382796.4474   25382800.9184   25382795.7714
      3349.8624       2610.2784
  -9166083.39143  -7090471.25642  24020328.5834   24020328.7634   24020327.4154
     -3294.9234      -2567.5024
  -7525429.80143  -5858307.86642  22992860.0964   22992863.4004   22992860.1014
      2676.1274       2085.2614
 05  9 20  0 48 30.0000000  0 12G28G11G 1G 3G20G 7G19G14G 9G24G22G31
 -10583991.32043  -8236856.96842  23784645.4124   23784646.5384   23784644.7014
     -1006.3864       -784.1984
 -26926727.34143 -20930305.80942  20616902.9254   20616904.9134   20616902.8244
      1005.1374        783.2224
 -18607470.55243 -14450015.31442  22266682.4494   22266685.2534   22266681.4524
      2411.9714       1879.4574
  -1688528.78843  -1270731.17342  25195205.6814   25195209.9334   25195205.7864
     -3842.0754      -2993.8304
 -11751253.46043  -9106561.36242  23538997.2694   23538999.2004   23538998.0834
      3463.7484       2698.9964
  -2207242.09743  -1673359.77042  25544680.7084   25544684.3994   25544680.5014
      3280.4834       2556.2324
 -16987144.09343 -13166960.38842  22349631.1004   22349631.8064   22349630.0124
     -2986.7624      -2327.3424
 -18009239.15343 -13976451.80642  21796075.0344   21796077.0734   21796074.5624
       202.3444        157.6714
  -3848609.63843  -2966823.23042  24677901.4234   24677903.5694   24677900.9624
      -962.3484       -749.8884
  -1843966.31243  -1389752.29842  25363676.7144   25363680.3314   25363676.3534
      3348.9234       2609.5384
  -9067179.30943  -7013403.14142  24039146.2674   24039149.0334   24039147.7804
     -3298.7104      -2570.4124
  -7605494.57643  -5920696.00042  22977624.5474   22977626.6564   22977624.3584
      2661.4634       2073.8624
 05  9 20  0 49  0.0000000  0 12G28G11G 1G 3G20G 7G19G14G 9G24G22G31
 -10553527.76643  -8213119.15342  23790442.7874   23790444.1914   23790440.0704
     -1024.7214       -798.4714
 -26956659.50844 -20953629.57542  20611207.7964   20611209.0704   20611206.8634
       989.9964        771.4264
 -18679596.06943 -14506217.00342  22252957.0894   22252959.6844   22252956.4154
      2396.2484       1867.2024
  -1573249.30943  -1180903.01442  25217142.5674   25217146.8844   25217142.1074
     -3843.1384      -2994.6524
 -11855064.07143  -9187452.70442  23519243.0724   23519244.5124   23519241.6434
      3456.8194       2693.6244
  -2305579.30343  -1749986.16442  25525966.6434   25525970.0394   25525966.6454
      3275.1754       2552.0954
 -16897353.69443 -13096993.85642  22366717.0634   22366718.4004   22366715.7794
     -2999.1074      -2336.9724
 -18014986.45943 -13980930.21842  21794981.6254   21794983.8444   21794980.7884
       180.7954        140.8764
  -3819419.91443  -2944077.98942  24683456.7814   24683458.9144   24683455.8464
      -983.8644       -766.6414
  -1944414.11643  -1468023.29342  25344561.1064   25344566.5444   25344561.0964
      3347.4954       2608.4504
  -8968143.24343  -6936232.23242  24057995.0164   24057995.8994   24057995.4424
     -3303.7394      -2574.3404
  -7685115.11543  -5982737.97742  22962472.9104   22962474.9974   22962472.1424
      2646.1394       2061.9054
 05  9 20  0 49 30.0000000  0 12G28G11G 1G 3G20G 7G19G14G 9G24G22G31
 -10522528.93743  -8188964.22242  23796340.6584   23796344.2274   23796341.4974
     -1041.5954       -811.5904
 -26986147.58843 -20976607.29642  20605595.8964   20605597.4704   20605595.6254
       976.0344        760.5604
 -18751261.87343 -14562060.47042  22239318.8744   22239322.6594   22239318.8254
      2381.5684       1855.7754
  -1457958.36643  -1091065.93642  25239081.8284   25239085.4334   25239081.6594
     -3842.7244      -2994.3314
 -11958680.37043  -9268192.66042  23499526.2314   23499527.8214   23499524.4374
      3451.1324       2689.2044
  -2403768.04343  -1826496.87442  25507281.7354   25507285.4264   25507281.6234
      3270.8174       2548.6904
 -16807211.87043 -13026753.49242  22383870.5394   22383871.4874   22383869.7314
     -3010.0514      -2345.4884
 -18020102.74243 -13984916.91942  21794007.8194   21794010.3774   21794007.0584
       160.4814        125.0744
  -3789605.69843  -2920846.10142  24689130.1314   24689132.8764   24689129.6054
     -1003.9174       -782.2694
  -2044830.03643  -1546269.42042  25325453.2214   25325456.8674   25325452.2114
      3347.1094       2608.1494
  -8868977.12743  -6858959.94742  24076866.1884   24076866.3954   24076865.4574
     -3307.2744      -2577.0924
  -7764288.91343  -6044431.83942  22947406.7904   22947410.7544   22947406.9794
      2632.1664       2051.0444
 05  9 20  0 50  0.0000000  0 12G28G11G 1G 3G20G 7G19G14G 9G24G22G31
 -10490995.65443  -8164392.84242  23802342.4774   23802343.0634   23802341.0444
     -1060.0884       -826.0944
 -27015190.32243 -20999237.99842  20600069.2514   20600070.9444   20600069.0364
       960.4874        748.4204
 -18822465.42943 -14617543.74442  22225769.6354   22225772.8454   22225769.1744
      2365.5864       1843.2924
  -1342657.73043  -1001221.30842  25261022.5484   25261027.1914   25261022.6724
     -3843.7554      -2995.1454
 -12062100.49243  -9348779.71542  23479845.7724   23479848.8054   23479844.4994
      3443.8864       2683.5684
  -2501805.88943  -1902889.95242  25488624.9464   25488630.4564   25488624.6204
      3265.1884       2544.3014
 -16716720.77243 -12956240.95842  22401090.3434   22401090.8064   22401089.2714
     -3022.3014      -2355.0554
 -18024588.06743 -13988411.97242  21793154.4864   21793156.5274   21793153.5034
       138.8114        108.1544
  -3759167.75943  -2897128.22642  24694923.8664   24694925.9934   24694922.9904
     -1024.8474       -798.5924
  -2145212.95743  -1624489.83542  25306350.6894   25306354.8204   25306347.6114
      3345.3724       2606.7784
  -8769682.49343  -6781587.50242  24095761.4944   24095759.4734   24095760.6014
     -3312.0924      -2580.8504
  -7843013.08643  -6105775.35942  22932426.8684   22932429.5974   22932425.1764
      2616.3894       2038.7534
 05  9 20  0 50 30.0000000  0 12G28G11G 1G 3G20G 7G19G14G 9G24G22G31
 -10458930.17843  -8139406.74442  23808442.9224   23808444.6554   23808441.8484
     -1078.4884       -840.4194
 -27043787.16644 -21021521.25242  20594627.5084   20594629.1364   20594627.1184
       945.2224        736.5204
 -18893204.87943 -14672665.37342  22212308.2644   22212311.6824   22212307.0674
      2349.6944       1830.9074
  -1227349.96843   -911371.12642  25282965.0564   25282969.6754   25282965.0514
     -3844.1464      -2995.4434
 -12165323.04043  -9429212.81542  23460202.2654   23460205.8904   23460202.0404
      3436.8804       2678.0504
  -2599690.94843  -1979163.97842  25469998.4604   25470004.4004   25469997.7054
      3259.8874       2540.1614
 -16625882.91843 -12885458.23242  22418376.7844   22418377.8004   22418375.2444
     -3034.2124      -2364.3394
 -18028443.02743 -13991415.82642  21792420.2074   21792422.6844   21792419.8784
       117.4114         91.4754
  -3728107.60843  -2872925.55542  24700831.3964   24700834.1544   24700831.2814
     -1046.2494       -815.2634
  -2245562.11943  -1702683.98142  25287255.2264   25287260.1884   25287253.2764
      3343.6894       2605.4624
  -8670261.25943  -6704116.37142  24114680.7874   24114679.3554   24114681.3014
     -3316.7894      -2584.5244
  -7921285.42843  -6166766.78442  22917531.5444   22917533.7024   22917531.4184
      2600.8374       2026.6234
 05  9 20  0 51  0.0000000  0 12G28G11G 1G 3G20G 7G19G14G 9G24G22G31
 -10426333.85143  -8114007.00642  23814646.3144   23814646.7204   23814645.9864
     -1094.8874       -853.1944
 -27071937.03243 -21043456.21042  20589270.7154   20589272.5144   20589270.5604
       931.3754        725.7334
 -18963477.85743 -14727423.51942  22198935.5194   22198939.3284   22198935.0004
      2335.1684       1819.5884
  -1112037.00043   -821516.87742  25304908.2804   25304912.9034   25304908.1324
     -3842.9654      -2994.5194
 -12268346.64143  -9509490.92042  23440596.3114   23440601.8394   23440596.6104
      3431.4004       2673.8224
  -2697420.96143  -2055317.21742  25451402.0564   25451404.7204   25451402.3744
      3255.7534       2536.9504
 -16534700.32543 -12814406.87042  22435728.2174   22435728.7104   22435726.8204
     -3044.6384      -2372.4524
 -18031666.99943 -13993928.00442  21791807.2074   21791809.3444   21791806.8814
        97.5724         76.0194
  -3696426.38943  -2848238.88842  24706861.0994   24706865.1614   24706861.5024
     -1065.6524       -830.3674
  -2345876.29243  -1780850.86842  25268166.4194   25268170.2524   25268164.6934
      3343.5564       2605.3704
  -8570715.30543  -6626548.06042  24133623.9674   24133622.0604   24133622.9444
     -3319.7064      -2586.7964
  -7999103.30443  -6227404.08342  22902723.2824   22902725.7894   22902722.8494
      2586.7934       2015.6634
 05  9 20  0 51 30.0000000  0 12G28G11G 1G 3G20G 7G19G14G 9G24G22G31
 -10393207.94043  -8088194.60942  23820950.0384   23820950.9564   23820949.8364
     -1112.7974       -867.0684
 -27099638.77443 -21065041.98642  20583999.3534   20584000.6644   20583999.0004
       916.2134        713.9354
 -19033281.93843 -14781816.29442  22185652.1954   22185656.0484   22185652.0954
      2319.1884       1807.1704
   -996721.05843   -731660.34942  25326852.4614   25326856.7664   25326852.7524
     -3843.4954      -2994.9434
 -12371169.71643  -9589612.75642  23421031.4464   23421034.1674   23421030.9114
      3424.3954       2668.3724
  -2794993.69343  -2131347.88042  25432833.1414   25432838.0124   25432833.8744
      3249.7544       2532.2744
 -16443175.43443 -12743088.79242  22453145.0404   22453145.4694   22453143.5054
     -3056.2314      -2381.4624
 -18034260.10143 -13995948.58842  21791313.5314   21791315.8264   21791313.0494
        76.1944         59.3724
  -3664125.12643  -2823069.06742  24713007.9344   24713010.6034   24713008.0584
     -1086.8304       -846.8784
  -2446154.49443  -1858989.65242  25249084.7654   25249086.8504   25249083.6444
      3342.2724       2604.3634
  -8471046.33843  -6548883.88242  24152590.5704   24152590.5784   24152589.3204
     -3324.0934      -2590.1934
  -8076464.19643  -6287685.30742  22888002.3044   22888003.7964   22888002.0484
      2571.3384       2003.6454
 05  9 20  0 52  0.0000000  0 12G28G11G 1G 3G20G 7G19G14G 9G24G22G31
 -10359554.08343  -8061970.84142  23827353.4994   23827356.2114   23827352.5734
     -1130.4434       -880.8914
 -27126891.87543 -21086278.16642  20578813.3944   20578814.7684   20578812.9294
       901.0694        702.1254
 -19102614.95643 -14835842.01142  22172458.8904   22172462.4344   22172458.3964
      2303.2604       1794.7474
   -881404.28143   -641803.16742  25348796.9804   25348799.8534   25348796.1164
     -3844.0984      -2995.4054
 -12473790.58143  -9669577.01842  23401502.6984   23401506.8254   23401501.4554
      3417.4654       2662.9574
  -2892406.89343  -2207254.24742  25414297.4594   25414301.8694   25414296.2784
      3244.5024       2528.1844
 -16351310.28143 -12671505.56942  22470626.4564   22470626.3764   22470624.9474
     -3067.6474      -2390.3754
 -18036222.40143 -13997477.65042  21790940.6264   21790942.3904   21790939.8694
        54.8684         42.7574
  -3631205.18643  -2797417.16542  24719272.8684   24719274.1434   24719272.3584
     -1107.3524       -862.8684
  -2546395.77543  -1937099.71842  25230009.5264   25230013.1354   25230006.7364
      3340.9994       2603.3584
  -8371255.87943  -6471125.10542  24171579.1194   24171578.7634   24171579.5194
     -3328.1064      -2593.3514
  -8153365.49943  -6347608.38942  22873367.7664   22873370.2224   22873368.1804
      2555.8124       1991.5434
 05  9 20  0 52 30.0000000  0 12G28G11G 1G 3G20G 7G19G14G 9G24G22G31
 -10325374.04843  -8035337.05042  23833858.5884   23833858.9334   23833858.4144
     -1147.9174       -894.5204
 -27153695.34043 -21107163.98442  20573712.7584   20573714.2074   20573712.4204
       886.1954        690.5584
 -19171474.92643 -14889499.12042  22159355.4154   22159358.4584   22159354.8374
      2287.6894       1782.6294
   -766089.28443   -551947.35542  25370741.5294   25370743.6484   25370739.3704
     -3843.7904      -2995.1574
 -12576207.83043  -9749382.63742  23382013.6074   23382016.0894   23382012.0494
      3410.6844       2657.6904
  -2989658.48543  -2283034.71642  25395791.6234   25395795.5684   25395790.0224
      3239.2044       2524.0644
 -16259106.83043 -12599658.73542  22488171.2234   22488172.4544   22488170.4264
     -3078.7864      -2399.0484
 -18037553.96043 -13998515.21342  21790687.2774   21790688.9734   21790686.4804
        34.1184         26.6064
  -3597667.90543  -2771284.19842  24725653.2784   24725657.6234   24725653.8914
     -1127.6664       -878.7024
  -2646598.80143  -2015179.94442  25210940.8424   25210943.6734   25210940.1684
      3339.5304       2602.2254
  -8271345.90143  -6393273.19642  24190590.0354   24190591.5994   24190590.7964
     -3332.1324      -2596.4594
  -8229804.70143  -6407171.40642  22858822.6984   22858825.4544   22858821.8264
      2540.2544       1979.4174
 05  9 20  0 53  0.0000000  0 12G28G11G 1G 3G20G 7G19G14G 9G24G22G31
 -10290669.33543  -8008294.40342  23840462.3584   23840463.7514   23840461.6794
     -1164.7694       -907.6424
 -27180048.08643 -21127698.59342  20568697.6774   20568699.4564   20568697.4184
       871.8444        679.3604
 -19239859.51143 -14942785.79042  22146341.6704   22146345.8774   22146341.6614
      2272.5154       1770.7714
   -650777.70543   -462094.17242  25392684.5544   25392687.4374   25392683.7624
     -3842.9064      -2994.4664
 -12678420.22243  -9829028.62642  23362563.8244   23362566.5334   23362562.7684
      3404.6094       2652.9704
  -3086746.20143  -2358687.46542  25377317.2424   25377319.6734   25377315.8264
      3234.0414       2520.0294
 -16166567.85643 -12527550.45342  22505781.3494   22505782.3944   22505779.9804
     -3089.2244      -2407.1964
 -18038254.70443 -13999061.23842  21790553.3314   21790555.2624   21790552.9924
        13.8494         10.7924
  -3563514.50043  -2744671.17942  24732154.3264   24732156.7184   24732153.3194
     -1147.9544       -894.5094
  -2746762.81743  -2093229.81142  25191880.3894   25191884.1554   25191878.6584
      3339.0004       2601.8204
  -8171317.93843  -6315329.35542  24209621.1994   24209627.5614   24209622.4674
     -3335.0904      -2598.7714
  -8305779.26243  -6466372.35242  22844364.3044   22844366.5064   22844363.7084
      2525.6304       1968.0214
 05  9 20  0 53 30.0000000  0 12G28G11G 1G 3G20G 7G19G14G 9G24G22G31
 -10255441.67143  -7980844.28642  23847165.9434   23847168.7694   23847165.0644
     -1182.5774       -921.4904
 -27205949.27943 -21147881.34342  20563769.2704   20563770.8674   20563768.8364
       856.0884        667.0794
 -19307766.48443 -14995700.30542  22133419.5684   22133423.0964   22133419.3724
      2255.9864       1757.9164
   -535471.54043   -372245.22842  25414626.3474   25414630.2274   25414624.6504
     -3842.9834      -2994.5294
 -12780425.88443  -9908513.51242  23343151.8294   23343154.8034   23343151.4454
      3397.0964       2647.0844
  -3183667.86043  -2434210.81542  25358873.5604   25358877.4874   25358871.8334
      3227.7884       2515.1634
 -16073695.28143 -12455182.23242  22523453.3424   22523455.2714   22523452.4564
     -3100.8714      -2416.2624
 -18038324.89743 -13999115.93342  21790540.0044   21790542.0654   21790539.4074
        -7.8054         -6.0764
  -3528746.65743  -2717579.34442  24738769.1134   24738771.9584   24738768.5284
     -1168.7924       -910.7394
  -2846886.65543  -2171248.35542  25172826.4004   25172831.2044   25172825.8664
      3337.2844       2600.4884
  -8071173.82343  -6237295.04542  24228681.9784   24228684.2624   24228682.7964
     -3339.7304      -2602.3814
  -8381286.66143  -6525209.29242  22829996.3174   22829999.0134   22829995.0104
      2509.4634       1955.4294
 05  9 20  0 54  0.0000000  0 12G28G11G 1G 3G20G 7G19G14G 9G24G22G31
 -10219692.41243  -7952987.72542  23853968.2024   23853969.7134   23853968.7614
     -1201.0344       -935.8564
 -27231397.88443 -21167711.42242  20558926.1434   20558927.8584   20558926.0774
       840.2194        654.7154
 -19375193.60443 -15048240.89942  22120588.8244   22120592.2334   22120588.1014
      2238.9124       1744.5944
   -420172.91143   -282402.17442  25436566.4384   25436572.0864   25436565.0814
     -3843.6904      -2995.0674
 -12882223.43443  -9987836.25742  23323780.6254   23323782.4444   23323779.1504
      3389.2884       2641.0094
  -3280421.14443  -2509602.95942  25340462.8794   25340465.8624   25340461.2124
      3222.1664       2510.7784
 -15980491.17843 -12382555.67442  22541190.0654   22541190.7134   22541188.7394
     -3112.9114      -2425.6514
 -18037764.63643 -13998679.35742  21790647.4474   21790648.7354   21790646.2994
       -29.7254        -23.1674
  -3493365.31843  -2690009.50442  24745502.9844   24745504.7354   24745502.1314
     -1190.0214       -927.2844
  -2946969.21743  -2249234.74642  25153780.7484   25153784.6374   25153782.1864
      3334.5634       2598.3564
  -7970915.29843  -6159171.48642  24247760.5704   24247761.6384   24247760.5194
     -3344.3764      -2606.0094
  -8456324.68543  -6583680.46542  22815717.4104   22815720.0534   22815716.1794
      2492.7314       1942.3774
 05  9 20  0 54 30.0000000  0 12G28G11G 1G 3G20G 7G19G14G 9G24G22G31
 -10183423.46343  -7924726.21142  23860871.1494   23860872.0954   23860869.6324
     -1216.9894       -948.2914
 -27256393.24143 -21187188.32342  20554169.9624   20554171.5754   20554169.5214
       825.9884        643.6394
 -19442138.87243 -15100406.02842  22107849.8164   22107852.5974   22107849.1024
      2223.8454       1732.8734
   -304884.05343   -192566.73542  25458505.8494   25458509.5204   25458504.4544
     -3842.1784      -2993.9064
 -12983811.38943 -10066995.66942  23304450.0144   23304452.3754   23304449.4304
      3383.0944       2636.2264
  -3377003.91443  -2584862.23842  25322083.5944   25322085.3744   25322082.0964
      3216.6534       2506.4904
 -15886957.84843 -12309672.57542  22558989.2924   22558990.2674   22558988.4394
     -3122.8184      -2433.3634
 -18036573.92443 -13997751.51842  21790873.6084   21790875.6394   21790873.0824
       -49.8204        -38.8004
  -3457371.96943  -2661962.72542  24752352.4744   24752354.8154   24752351.7184
     -1209.3474       -942.3464
  -3047009.60543  -2327188.26042  25134743.8714   25134749.3734   25134744.3774
      3334.3524       2598.2014
  -7870544.07343  -6080960.16042  24266861.2844   24266862.2984   24266861.0644
     -3347.0954      -2608.1124
  -8530890.79743  -6641783.92642  22801527.2784   22801529.0464   22801527.2034
      2478.1164       1931.0114
 05  9 20  0 55  0.0000000  0 12G28G11G 1G 3G20G 7G19G14G 9G24G22G31
 -10146636.40443  -7896061.00142  23867870.2844   23867870.9984   23867871.0654
     -1235.0934       -962.3964
 -27280934.27743 -21206311.20542  20549499.9794   20549501.5534   20549499.5324
       810.0964        631.2444
 -19508599.83843 -15152193.77542  22095202.2964   22095205.4684   22095202.0154
      2207.0584       1719.7824
   -189606.84843   -102740.37342  25480442.2994   25480446.8004   25480440.9274
     -3842.6694      -2994.2864
 -13085188.18543 -10145990.52342  23285157.7644   23285159.5464   23285156.5614
      3375.5194       2630.2884
  -3473413.84943  -2659986.84442  25303735.8714   25303739.0524   25303734.8364
      3210.4254       2501.6364
 -15793097.91443 -12236534.98042  22576850.1124   22576850.9084   22576849.1964
     -3134.4264      -2442.4044
 -18034752.87743 -13996332.51542  21791219.8774   21791221.8894   21791219.8044
       -71.3574        -55.5964
  -3420767.75143  -2633439.94542  24759316.3714   24759320.5434   24759317.1894
     -1230.5664       -958.8934
  -3147006.50543  -2405107.86242  25115716.7854   25115719.6784   25115714.4714
      3331.8454       2596.2394
  -7770061.60643  -6002662.18542  24285983.1934   24285983.2204   24285983.1874
     -3351.4394      -2611.5104
  -8604982.32443  -6699517.58842  22787428.7184   22787430.9104   22787428.0224
      2461.5484       1918.0894
 05  9 20  0 55 30.0000000  0 12G28G11G 1G 3G20G 7G19G14G 9G24G22G31
 -10109333.30243  -7866993.64042  23874969.3724   23874970.0114   23874969.2024
     -1251.9624       -975.5324
 -27305020.51943 -21225079.70242  20544916.6234   20544917.9814   20544916.0274
       795.2274        619.6594
 -19574574.62343 -15203602.68242  22082647.8894   22082651.4904   22082647.4674
      2191.0874       1707.3454
    -74343.95943    -12925.15342  25502375.7804   25502381.1314   25502374.1924
     -3841.8654      -2993.6574
 -13186352.68743 -10224819.97042  23265906.8494   23265909.3184   23265906.4294
      3368.5524       2624.8624
  -3569648.77943  -2734975.07542  25285423.7264   25285426.6574   25285422.1114
      3204.8284       2497.2624
 -15698913.60243 -12163144.61842  22594772.1674   22594773.2614   22594771.6004
     -3144.7474      -2450.4454
 -18032301.85543 -13994422.62342  21791686.6084   21791688.4284   21791685.7834
       -92.2044        -71.8514
  -3383554.28743  -2604442.46342  24766398.9354   24766400.7264   24766399.3774
     -1250.8034       -974.6414
  -3246959.10243  -2482992.97342  25096696.0294   25096699.6714   25096694.6694
      3330.5994       2595.2734
  -7669470.18543  -5924279.25842  24305124.2444   24305123.5274   24305123.8864
     -3354.7474      -2614.0534
  -8678597.09943  -6756879.74642  22773420.1824   22773422.4814   22773419.8484
      2445.9894       1905.9614
 05  9 20  0 56  0.0000000  0 12G28G11G 1G 3G20G 7G19G14G 9G24G22G31
 -10071515.16443  -7837524.98242  23882166.2164   23882166.5404   23882165.5364
     -1268.9324       -988.8084
 -27328650.90043 -21243492.98842  20540419.5724   20540421.3184   20540419.3064
       780.1434        607.8924
 -19640061.04343 -15254631.04642  22070186.1464   22070189.0284   22070185.8344
      2174.7684       1694.6224
     40902.69143     76877.41242  25524306.3694   25524310.1384   25524303.9944
     -3840.9164      -2992.9214
 -13287302.90743 -10303482.43642  23246695.4004   23246698.2534   23246695.5644
      3361.6144       2619.4134
  -3665706.48343  -2809825.20942  25267144.2244   25267148.2064   25267144.1924
      3198.9574       2492.6834
 -15604407.09243 -12089503.19742  22612757.0214   22612757.8624   22612755.8984
     -3155.4464      -2458.7964
 -18029220.86243 -13992021.84242  21792272.2464   21792274.5484   21792271.7794
      -113.1514        -88.1834
  -3345733.21243  -2574971.49642  24773595.3054   24773599.9334   24773594.9894
     -1270.6084       -990.0844
  -3346866.16343  -2560842.59842  25077682.5614   25077686.3614   25077683.5474
      3329.3794       2594.3244
  -7568770.94943  -5845812.21642  24324287.1574   24324286.8254   24324286.4464
     -3358.3084      -2616.8324
  -8751732.45843  -6813868.34442  22759503.3084   22759505.2254   22759502.8174
      2429.9334       1893.4374
 05  9 20  0 56 30.0000000  0 12G28G11G 1G 3G20G 7G19G14G 9G24G22G31
 -10033184.08443  -7807656.61742  23889460.2034   23889461.9624   23889459.1914
     -1286.3874      -1002.3804
 -27351824.29243 -21261550.17942  20536010.4514   20536011.5374   20536009.7584
       764.7334        595.8944
 -19705057.05943 -15305277.27842  22057817.7654   22057821.2244   22057817.2984
      2158.2144       1681.7124
    156131.08943    166665.75542  25546232.2804   25546237.7004   25546231.6214
     -3841.0284      -2993.0204
 -13388037.72543 -10381977.06442  23227526.2884   23227531.0074   23227525.4364
      3354.1184       2613.5894
  -3761584.80343  -2884535.60742  25248900.8734   25248901.8324   25248898.2234
      3192.8724       2487.9584
 -15509580.60643 -12015612.43742  22630801.5174   22630802.5834   22630800.0484
     -3166.3404      -2467.2844
 -18025510.35843 -13989130.53342  21792978.5924   21792980.3484   21792978.1994
      -134.3144       -104.6694
  -3307305.82543  -2545028.09142  24780907.2174   24780910.5584   24780907.2914
     -1291.1004      -1006.0644
  -3446726.81843  -2638656.12342  25058679.8154   25058684.6014   25058679.3444
      3327.9144       2593.1884
  -7467965.83243  -5767262.73742  24343468.9944   24343470.1374   24343468.9584
     -3361.9434      -2619.7284
  -8824386.13043  -6870481.57942  22745677.7774   22745679.8404   22745676.1704
      2413.5014       1880.6384
 05  9 20  0 57  0.0000000  0 12G28G11G 1G 3G20G 7G19G14G 9G24G22G31
  -9994341.72543  -7777389.82742  23896850.5824   23896852.5604   23896849.9524
     -1303.3094      -1015.5574
 -27374540.11643 -21279250.81942  20531687.4344   20531688.7634   20531687.0434
       749.5714        584.0844
 -19769560.44243 -15355539.63842  22045542.2344   22045546.6504   22045542.5684
      2142.0014       1669.0884
    271339.13043    256438.21842  25568156.5174   25568160.4454   25568155.3924
     -3839.9274      -2992.1564
 -13488555.63043 -10460302.67942  23208399.3214   23208402.7224   23208396.8504
      3346.9344       2608.0264
  -3857281.35543  -2959104.33642  25230688.7134   25230692.3344   25230687.2094
      3186.5214       2483.0004
 -15414435.82443 -11941473.66342  22648907.7424   22648908.2564   22648906.3514
     -3176.6324      -2475.2934
 -18021170.62243 -13985748.91442  21793804.5754   21793806.5174   21793804.1864
      -155.1444       -120.8784
  -3268273.65643  -2514613.42142  24788337.1374   24788340.3804   24788335.7374
     -1310.8654      -1021.4584
  -3546539.97343  -2716432.57342  25039685.5324   25039689.1204   25039686.1724
      3326.2924       2591.9144
  -7367056.40343  -5688632.04842  24362669.7664   24362673.4754   24362669.6774
     -3365.3094      -2622.2934
  -8896555.48443  -6926717.43542  22731944.0324   22731946.2624   22731944.0324
      2397.6444       1868.3074
 05  9 20  0 57 30.0000000  0 12G28G11G 1G 3G20G 7G19G14G 9G24G22G31
  -9954989.99643  -7746726.13442  23904338.7514   23904340.9134   23904338.9564
     -1319.4614      -1028.1224
 -27396797.34843 -21296594.11342  20527451.3984   20527453.4934   20527451.2934
       734.5614        572.3974
 -19833569.29443 -15405416.64542  22033362.1084   22033366.3914   22033361.8804
      2125.7904       1656.4694
    386524.57043    346193.10242  25590075.7804   25590078.3414   25590075.5424
     -3838.5044      -2991.0314
 -13588855.08443 -10538458.06142  23189313.2754   23189315.5734   23189312.0314
      3340.0384       2602.6464
  -3952794.07743  -3033529.83442  25212513.4844   25212516.9174   25212512.2854
      3180.9224       2478.6484
 -15318975.94643 -11867089.35342  22667072.8014   22667073.4174   22667071.7174
     -3186.7824      -2483.1894
 -18016201.88243 -13981877.15942  21794750.5924   21794752.0844   21794749.5814
      -175.6714       -136.8634
  -3228638.27843  -2483728.74642  24795878.0814   24795881.2224   24795877.2374
     -1330.7684      -1036.9624
  -3646304.35543  -2794171.05442  25020702.0804   25020704.6894   25020701.7114
      3324.7854       2590.7434
  -7266044.40243  -5609921.39542  24381892.5064   24381895.9134   24381892.4794
     -3368.4204      -2624.7374
  -8968238.21343  -6982574.10442  22718302.5774   22718305.4104   22718302.1754
      2381.8484       1856.0004
 05  9 20  0 58  0.0000000  0 12G28G11G 1G 3G20G 7G19G14G 9G24G22G31
  -9915130.76943  -7715666.97142  23911926.5064   23911925.1144   23911924.9254
     -1336.9634      -1041.7884
 -27418595.43243 -21313579.63442  20523303.8044   20523305.6364   20523303.4524
       719.0044        560.2614
 -19897081.47543 -15454906.63942  22021276.9334   22021280.2484   22021276.3554
      2108.7914       1643.2174
    501685.58543    435928.95142  25611989.3894   25611994.8664   25611989.3584
     -3837.8924      -2990.5614
 -13688934.56043 -10616442.01542  23170269.1344   23170271.8214   23170268.6024
      3332.3444       2596.6124
  -4048120.68243  -3107810.30442  25194373.4014   25194374.2264   25194372.8124
      3174.2694       2473.4594
 -15223202.92543 -11792461.04142  22685297.5004   22685298.6024   22685296.6954
     -3197.5184      -2491.5754
 -18010604.52543 -13977515.57342  21795814.6564   21795816.8654   21795814.3444
      -197.0404       -153.5334
  -3188401.02343  -2452375.04042  24803536.3184   24803538.8744   24803536.3504
     -1351.4544      -1053.0714
  -3746018.74943  -2871870.58442  25001727.2644   25001731.4854   25001727.6554
      3323.0084       2589.3544
  -7164931.46143  -5531132.11942  24401133.5724   24401134.1564   24401134.2684
     -3372.2394      -2627.7124
  -9039431.96943  -7038049.77842  22704755.3944   22704758.6544   22704754.4704
      2364.9044       1842.7794
 05  9 20  0 58 30.0000000  0 11G28G11G 1G20G 7G19G14G 9G24G22G31
  -9874765.67643  -7684213.63542  23919605.9734   23919607.8344   23919604.5784
     -1354.3564      -1055.3274
 -27439933.39243 -21330206.61542  20519243.7654   20519244.7064   20519243.1534
       703.2044        547.9534
 -19960094.72143 -15504007.85542  22009285.9104   22009289.0974   22009285.3144
      2091.7084       1629.8894
 -13788792.55243 -10694253.41442  23151266.2644   23151269.4044   23151265.5674
      3324.5834       2590.5524
  -4143258.90543  -3181943.98642  25176268.2134   25176272.0614   25176266.5414
      3167.6484       2468.3034
 -15127119.26443 -11717590.65842  22703581.0194   22703582.1804   22703580.2594
     -3208.2974      -2499.9774
 -18004378.74843 -13972664.31742  21796999.8304   21797002.2334   21796999.2874
      -218.3704       -170.1514
  -3147563.51043  -2420553.62142  24811306.5864   24811308.9464   24811306.6684
     -1371.2254      -1068.4914
  -3845682.13843  -2949530.35342  24982762.1644   24982766.4394   24982762.5334
      3320.7184       2587.5694
  -7063719.16643  -5452265.38042  24420394.3164   24420395.7904   24420394.5884
     -3375.8564      -2630.5364
  -9110134.16643  -7093142.39642  22691300.9774   22691303.5574   22691299.9424
      2348.1734       1829.7504
 05  9 20  0 59  0.0000000  0 11G28G11G 1G20G 7G19G14G 9G24G22G31
  -9833896.68343  -7652367.69242  23927382.8414   23927384.5644   23927380.6774
     -1370.8584      -1068.1984
 -27460810.24343 -21346474.29042  20515270.7154   20515272.3854   20515270.1974
       687.8494        535.9894
 -20022606.96443 -15552718.68442  21997389.9364   21997393.4354   21997389.6384
      2075.0294       1616.9074
 -13888427.44843 -10771890.94042  23132304.9304   23132308.8024   23132304.5884
      3317.2754       2584.8584
  -4238206.35843  -3255928.97842  25158200.0874   25158204.9604   25158199.5544
      3161.2014       2463.2694
 -15030727.04443 -11642479.84842  22721923.9644   22721925.7544   22721922.9244
     -3218.5264      -2507.9484
 -17997524.89043 -13967323.63642  21798304.3104   21798306.6184   21798303.3394
      -239.1624       -186.3704
  -3106127.34243  -2388265.69942  24819190.9324   24819193.8994   24819190.4864
     -1391.6224      -1084.3734
  -3945293.43543  -3027149.56042  24963806.9894   24963810.0014   24963806.5224
      3319.2714       2586.4464
  -6962409.10843  -5373322.53142  24439672.6254   24439674.2944   24439672.8394
     -3379.3064      -2633.2264
  -9180342.46343  -7147850.15042  22677941.1164   22677943.6994   22677940.1054
      2331.7894       1816.9634
 05  9 20  0 59 30.0000000  0 11G28G11G 1G20G 7G19G14G 9G24G22G31
  -9792525.65243  -7620130.52342  23935257.1174   23935257.8514   23935255.8354
     -1387.7674      -1081.3754
 -27481225.38843 -21362382.19542  20511385.8154   20511387.3594   20511385.4894
       672.3734        523.9204
 -20084616.47943 -15601037.77542  21985589.9444   21985593.3544   21985589.6294
      2058.2194       1603.8004
 -13987838.04143 -10849353.71542  23113388.2924   23113392.8714   23113387.2964
      3309.5194       2578.8374
  -4332960.95143  -3329763.73542  25140168.7904   25140173.2294   25140168.6694
      3154.9714       2458.4184
 -14934028.63343 -11567130.45842  22740325.5694   22740326.5804   22740324.4984
     -3228.6544      -2515.8244
 -17990043.61443 -13961494.06042  21799728.2364   21799729.4654   21799727.4144
      -260.2344       -202.7914
  -3064094.45743  -2355512.83142  24827189.9074   24827192.8574   24827188.5434
     -1411.2134      -1099.6514
  -4044851.75143  -3104727.48342  24944862.4754   24944865.9034   24944861.7994
      3317.2114       2584.8294
  -6861003.43043  -5294305.13742  24458970.6234   24458971.4764   24458970.9654
     -3382.0144      -2635.3414
  -9250054.49443  -7202171.20742  22664675.3044   22664678.3494   22664675.1794
      2315.0694       1803.9464
 05  9 20  1  0  0.0000000  0 11G28G11G 1G20G 7G19G14G 9G24G22G31
  -9750654.49543  -7587503.65542  23943223.3594   23943224.5164   23943222.1294
     -1403.6494      -1093.7584
 -27501178.29543 -21377929.91842  20507589.2074   20507590.3874   20507588.6164
       657.6714        512.4764
 -20146121.40843 -15648963.67042  21973886.1854   21973889.5784   21973885.1424
      2042.0964       1591.2424
 -14087022.90743 -10926640.60342  23094515.6914   23094517.7064   23094514.2364
      3302.6464       2573.4714
  -4427520.45043  -3403446.45042  25122176.1114   25122178.9584   25122174.8614
      3149.0614       2453.8204
 -14837026.27743 -11491544.21642  22758784.3064   22758785.7414   22758783.6544
     -3238.2124      -2523.2684
 -17981935.18643 -13955175.80042  21801270.7114   21801272.4174   21801270.2874
      -280.4144       -218.5054
  -3021466.36443  -2322296.17742  24835303.3014   24835304.9064   24835301.9694
     -1430.4584      -1114.6504
  -4144356.00243  -3182263.24042  24925927.8124   24925930.9194   24925926.2124
      3316.2294       2584.0834
  -6759503.28043  -5215214.11642  24478285.8384   24478286.9594   24478285.7714
     -3384.6444      -2637.3864
  -9319268.06743  -7256103.85442  22651504.4344   22651506.7124   22651503.7014
      2299.0874       1791.4964
 05  9 20  1  0 30.0000000  0 11G28G11G 1G20G 7G19G14G 9G24G22G31
  -9708284.85443  -7554488.36042  23951285.1784   23951288.1664   23951284.1694
     -1420.6074      -1106.9594
 -27520667.75643 -21393116.50542  20503880.2224   20503881.7034   20503879.8424
       641.8864        500.1794
 -20207119.52543 -15696494.65742  21962277.7874   21962281.7354   21962277.3754
      2024.8694       1577.8304
 -14185980.22443 -11003750.16142  23075684.8844   23075685.5124   23075684.3074
      3294.8754       2567.4644
  -4521882.39343  -3476975.25742  25104218.4834   25104221.7034   25104217.9724
      3142.1894       2448.4634
 -14739722.35643 -11415722.98842  22777301.4894   22777301.5584   22777300.1984
     -3248.3834      -2531.1934
 -17973199.92943 -13948369.10242  21802932.9264   21802934.8154   21802932.2454
      -301.6324       -235.0444
  -2978244.69143  -2288616.94542  24843525.7264   24843530.0464   24843525.9094
     -1450.5534      -1130.3054
  -4243804.69243  -3259755.67242  24907002.3324   24907004.4824   24907002.1704
      3314.0374       2582.3664
  -6657910.13843  -5136050.60942  24497618.1224   24497619.2794   24497617.5574
     -3387.9854      -2639.9604
  -9387980.53843  -7309646.05042  22638428.8574   22638431.8164   22638428.2174
      2282.0414       1778.1994
 05  9 20  1  1  0.0000000  0 11G28G11G 1G20G 7G19G14G 9G24G22G31
  -9665418.79043  -7521086.25442  23959443.7624   23959444.5324   23959442.3384
     -1437.7644      -1120.3244
 -27539693.28543 -21407941.59342  20500259.4434   20500261.1894   20500259.3244
       625.7484        487.5914
 -20267608.94243 -15743629.24842  21950767.6084   21950770.9344   21950767.1594
      2007.2494       1564.0784
 -14284708.72343 -11080681.42242  23056896.5444   23056899.5804   23056896.5914
      3286.5094       2560.9184
  -4616044.74943  -3550348.50242  25086301.4474   25086302.7334   25086299.4224
      3134.9324       2442.8094
 -14642119.21943 -11339668.60742  22795873.6154   22795874.3304   22795872.5614
     -3259.0154      -2539.4854
 -17963838.29043 -13941074.31042  21804714.7864   21804716.4764   21804713.6704
      -323.1654       -251.8244
  -2934431.04443  -2254476.44342  24851863.6374   24851867.2744   24851863.7934
     -1470.7344      -1146.0294
  -4343197.15643  -3337204.32042  24888087.3674   24888091.8584   24888088.2124
      3311.5774       2580.4524
  -6556226.09843  -5056816.29942  24516967.5214   24516968.5794   24516968.6894
     -3391.3274      -2642.6154
  -9456189.78843  -7362796.10842  22625448.5704   22625451.6014   22625448.3394
      2264.6364       1764.6364
 05  9 20  1  1 30.0000000  0 11G28G11G 1G20G 7G19G14G 9G24G22G31
  -9622058.35443  -7487298.92042  23967695.5684   23967697.3354   23967695.0474
     -1453.9904      -1132.9864
 -27558254.13543 -21422404.59042  20496727.8564   20496729.0744   20496727.1914
       610.3744        475.6044
 -20327587.74943 -15790365.96842  21939353.9074   21939357.2764   21939353.7904
      1990.2274       1550.8214
 -14383207.03943 -11157433.32342  23038152.6464   23038155.1054   23038151.0344
      3278.7544       2554.8744
  -4710005.18343  -3623564.41842  25068420.9124   25068423.5674   25068419.7974
      3127.8814       2437.3064
 -14544219.42043 -11263383.05142  22814504.9044   22814505.1344   22814502.8834
     -3268.8184      -2547.1444
 -17953850.96643 -13933291.97442  21806615.1384   21806617.0374   21806614.4834
      -343.8194       -267.9244
  -2890027.17943  -2219876.04242  24860314.0384   24860315.8524   24860314.4584
     -1490.4234      -1161.3724
  -4442532.05443  -3414608.13142  24869184.7714   24869188.8634   24869185.1564
      3309.5864       2578.8954
  -6454452.77143  -4977512.40442  24536334.4954   24536334.9104   24536333.5924
     -3394.4224      -2644.9814
  -9523893.57043  -7415552.31042  22612565.2804   22612568.1864   22612564.8514
      2247.8374       1751.5344
 05  9 20  1  2  0.0000000  0 11G28G11G 1G20G 7G19G14G 9G24G22G31
  -9578205.38443  -7453127.77242  23976039.1974   23976042.0784   23976038.3484
     -1469.5294      -1145.0714
 -27576349.64843 -21436504.98942  20493284.0544   20493285.9694   20493283.9534
       595.7184        464.1954
 -20387054.05443 -15836703.33242  21928038.4484   21928041.1464   21928037.7584
      1973.9374       1538.1294
 -14481473.64043 -11234004.65142  23019451.1504   23019454.3664   23019450.7204
      3272.0544       2549.6764
  -4803761.47143  -3696621.25242  25050579.4424   25050581.2404   25050578.1574
      3122.2134       2432.8934
 -14446024.82943 -11186867.80942  22833189.6724   22833190.7084   22833188.7524
     -3277.5844      -2553.9684
 -17943238.47743 -13925022.49142  21808634.0574   21808636.7964   21808633.9434
      -363.8464       -283.5104
  -2845034.91443  -2184817.15442  24868874.1554   24868879.7324   24868876.1354
     -1509.1384      -1175.9484
  -4541808.30243  -3491966.21742  24850291.9744   24850298.4144   24850293.3024
      3308.5274       2578.0694
  -6352591.41043  -4898139.91042  24555717.0494   24555718.7514   24555717.0314
     -3396.5084      -2646.6134
  -9591089.36743  -7467912.66942  22599778.1214   22599781.8324   22599777.7674
      2231.7564       1739.0014
 05  9 20  1  2 30.0000000  0 11G28G11G 1G20G 7G19G14G 9G24G22G31
  -9533861.59343  -7418574.17342  23984477.5044   23984479.8834   23984476.6954
     -1486.7374      -1158.5204
 -27593978.46543 -21450241.72442  20489929.5994   20489931.0194   20489929.1414
       579.5154        451.5604
 -20446005.87243 -15882639.79942  21916819.2904   21916822.9114   21916819.3434
      1956.0834       1524.2054
 -14579506.99843 -11310394.23542  23000796.6314   23000800.5564   23000796.0724
      3263.4184       2542.8974
  -4897311.21243  -3769517.12542  25032777.9694   25032781.6664   25032777.0884
      3114.3674       2426.7814
 -14347538.30843 -11110125.08142  22851931.5654   22851931.1904   22851929.8594
     -3288.1104      -2562.1664
 -17932001.24143 -13916266.19742  21810772.8954   21810774.7234   21810772.3004
      -385.4034       -300.3324
  -2799455.84643  -2149300.96442  24877550.6134   24877553.4494   24877550.0874
     -1529.2054      -1191.6014
  -4641024.48243  -3569277.47842  24831413.2084   24831417.7244   24831413.1564
      3305.7744       2575.9184
  -6250643.82643  -4818700.23642  24575118.3484   24575117.7304   24575117.3844
     -3400.0844      -2649.4414
  -9657774.73543  -7519875.28442  22587089.4064   22587091.0534   22587088.0264
      2213.9674       1725.1474
 05  9 20  1  3  0.0000000  0 11G28G11G 1G20G 7G19G14G 9G24G22G31
  -9489029.39143  -7383640.00342  23993008.7164   23993012.0554   23993007.4884
     -1503.2064      -1171.3134
 -27611140.47343 -21463614.72042  20486663.4844   20486665.1194   20486663.0424
       563.8184        439.3324
 -20504441.43243 -15928173.98842  21905700.2004   21905703.0554   21905699.2624
      1938.7834       1510.7284
 -14677305.89943 -11386601.13542  22982186.7674   22982190.4354   22982185.9204
      3255.3764       2536.6514
  -4990652.43743  -3842250.54442  25015015.2494   25015018.2264   25015014.2624
      3107.4054       2421.3524
 -14248761.92143 -11033156.47042  22870727.5854   22870728.0234   22870726.8064
     -3297.8474      -2569.7594
 -17920140.02343 -13907023.68642  21813030.1244   21813031.8754   21813029.3654
      -406.2724       -316.5724
  -2753291.82843  -2113329.02142  24886334.0644   24886337.3754   24886333.8314
     -1549.0054      -1207.0174
  -4740179.87443  -3646541.43342  24812544.1504   24812547.6344   24812544.4304
      3303.4094       2574.0864
  -6148611.63743  -4739194.65142  24594532.3184   24594534.5664   24594533.4644
     -3402.7094      -2651.4704
  -9723947.78043  -7571438.71142  22574496.7234   22574498.7174   22574496.0164
      2196.6844       1711.7204
 05  9 20  1  3 30.0000000  0 11G28G11G 1G20G 7G19G14G 9G24G22G31
  -9443710.55543  -7348326.62442  24001633.3654   24001635.3844   24001632.3514
     -1518.0574      -1182.8844
 -27627834.62843 -21476623.15442  20483487.3234   20483488.4574   20483486.8644
       549.3224        428.0574
 -20562358.59743 -15973304.22842  21894679.3024   21894682.0274   21894678.5034
      1922.5194       1498.0784
 -14774868.64643 -11462624.02142  22963622.1464   22963624.7874   22963620.7524
      3248.6914       2531.4584
  -5083782.45143  -3914819.37242  24997293.1624   24997296.2114   24997292.6574
      3101.6184       2416.8514
 -14149697.80643 -10955963.66642  22889579.1944   22889580.5754   22889577.6614
     -3306.2594      -2576.3054
 -17907654.97343 -13897295.06642  21815405.8254   21815407.5564   21815404.8394
      -425.9164       -331.8754
  -2706544.66043  -2076902.68242  24895230.2634   24895231.7424   24895227.9484
     -1567.2214      -1221.2114
  -4839272.95843  -3723756.78942  24793687.6804   24793692.1394   24793686.6974
      3302.7294       2573.5464
  -6046496.49943  -4659624.37342  24613964.7224   24613964.7184   24613965.9634
     -3404.3814      -2652.7714
  -9789605.85443  -7622600.84342  22562001.7974   22562004.3294   22562001.5654
      2180.6064       1699.2084
 05  9 20  1  4  0.0000000  0 11G28G11G 1G20G 7G19G14G 9G24G22G31
  -9397907.12143  -7312635.65542  24010350.6154   24010351.0344   24010349.0444
     -1535.0774      -1196.1644
 -27644060.33743 -21489266.55942  20480399.6204   20480400.8334   20480399.0494
       532.7764        415.1504
 -20619755.48043 -16018029.05442  21883756.0424   21883759.8654   21883755.4724
      1904.2494       1483.8274
 -14872193.76543 -11538461.75542  22945101.8114   22945103.6294   22945100.7094
      3239.8194       2524.5374
  -5176699.24443  -3987222.05842  24979610.6764   24979614.6694   24979610.9744
      3093.1984       2410.2844
 -14050348.78043 -10878548.86542  22908483.9254   22908485.3754   22908483.3754
     -3316.7314      -2584.4734
 -17894546.94843 -13887081.01342  21817900.3184   21817902.1344   21817899.6024
      -447.7134       -348.8694
  -2659216.33643  -2040023.49642  24904235.3194   24904239.0274   24904234.9404
     -1587.4054      -1236.9324
  -4938302.75043  -3800922.83642  24774842.0764   24774847.2074   24774842.2034
      3299.6304       2571.1374
  -5944299.80043  -4579990.57442  24633412.2304   24633414.1484   24633413.4644
     -3408.1214      -2655.6664
  -9854746.78843  -7673360.01642  22549606.0804   22549609.1364   22549605.4744
      2162.3774       1684.9654
 05  9 20  1  4 30.0000000  0 11G28G11G 1G20G 7G19G14G 9G24G22G31
  -9351621.14643  -7276568.68342  24019157.9974   24019159.0834   24019157.8944
     -1551.6364      -1209.0734
 -27659817.18443 -21501544.62342  20477400.9194   20477402.2404   20477400.3644
       516.7514        402.6584
 -20676630.54943 -16062347.28242  21872933.6504   21872936.2524   21872932.7504
      1886.4074       1469.9274
 -14969279.74143 -11614113.13942  22926627.1594   22926629.0274   22926625.6144
      3231.5294       2518.0704
  -5269400.58343  -4059456.87142  24961971.3564   24961974.1174   24961970.8514
      3085.5284       2404.3134
 -13950717.05843 -10800913.74842  22927443.4674   22927443.8674   22927441.7494
     -3326.6474      -2592.2114
 -17880816.65743 -13876382.08142  21820512.7694   21820514.8554   21820512.2184
      -468.8104       -365.3174
  -2611308.59443  -2002692.83442  24913351.6504   24913356.1284   24913351.3314
     -1607.2424      -1252.3894
  -5037268.35043  -3878038.85942  24756009.6484   24756013.4264   24756010.3144
      3297.1734       2569.2324
  -5842023.28143  -4500294.59242  24652875.7814   24652876.5194   24652875.2364
     -3411.3384      -2658.1854
  -9919368.58443  -7723714.66242  22537309.5984   22537312.3534   22537309.2874
      2144.6004       1671.1024
 05  9 20  1  5  0.0000000  0 11G28G11G 1G20G 7G19G14G 9G24G22G31
  -9304854.57943  -7240127.22442  24028056.5764   24028056.5674   24028056.1164
     -1566.5724      -1220.6984
 -27675103.99443 -21513456.42142  20474492.2304   20474493.4464   20474491.5734
       502.3364        391.4204
 -20732981.90243 -16106257.41342  21862210.1934   21862213.4244   21862209.5844
      1870.0414       1457.1624
 -15066125.53243 -11689577.36042  22908197.9204   22908200.1674   22908196.7024
      3224.5794       2512.6514
  -5361884.15243  -4131521.96542  24944372.8424   24944375.2774   24944370.9174
      3079.5484       2399.6504
 -13850804.79843 -10723060.05742  22946456.3024   22946458.2134   22946455.1154
     -3334.5574      -2598.3544
 -17866464.71043 -13865198.73942  21823244.1264   21823245.8654   21823243.8044
      -488.3564       -380.5364
  -2562823.01643  -1964911.87342  24922577.8924   24922582.9054   24922576.5884
     -1625.4594      -1266.6084
  -5136168.36443  -3955103.75942  24737189.6004   24737193.9714   24737190.5414
      3295.7954       2568.1494
  -5739668.40843  -4420537.57442  24672351.9754   24672354.2154   24672352.7574
     -3412.7524      -2659.2854
  -9983468.62743  -7773662.74142  22525112.2434   22525114.5824   22525110.8624
      2128.5024       1658.5734
 05  9 20  1  5 30.0000000  0 11G28G11G 1G20G 7G19G14G 9G24G22G31
  -9257609.70343  -7203313.04042  24037047.7554   24037047.4874   24037046.4494
     -1582.6024      -1233.1874
 -27689920.39143 -21525001.66742  20471672.4634   20471673.9584   20471672.0824
       486.0304        378.7224
 -20788807.74343 -16149758.05042  21851587.2614   21851590.0624   21851586.5624
      1852.1374       1443.2154
 -15162729.47543 -11764853.13242  22889814.5594   22889815.9754   22889813.6584
      3216.0604       2506.0114
  -5454147.74443  -4203415.69142  24926815.6344   24926818.1934   24926813.7504
      3071.6724       2393.4964
 -13750614.62943 -10644989.81642  22965521.4864   22965522.7744   22965520.2984
     -3344.2524      -2605.9174
 -17851491.78143 -13853531.50742  21826092.9674   21826095.2834   21826092.5734
      -509.3384       -396.8914
  -2513761.87643  -1926682.42742  24931916.1544   24931917.5294   24931915.3994
     -1645.0654      -1281.8614
  -5235001.64143  -4032116.69942  24718382.9274   24718385.9734   24718382.0314
      3293.2124       2566.1324
  -5637236.96943  -4340720.89742  24691845.2684   24691845.4184   24691844.2064
     -3415.6674      -2661.5724
 -10047044.98743  -7823202.76342  22513013.3834   22513015.7304   22513013.1084
      2110.5244       1644.5744
 05  9 20  1  6  0.0000000  0 11G28G11G 1G20G 7G19G14G 9G24G22G31
  -9209888.51943  -7166127.70742  24046128.2784   24046131.1234   24046126.1994
     -1598.4254      -1245.5324
 -27704265.66243 -21536179.79942  20468942.6914   20468944.3234   20468942.2964
       470.5554        366.6564
 -20844106.23943 -16192847.76942  21841063.1554   21841067.0154   21841062.8454
      1834.7384       1429.6604
 -15259090.12643 -11839939.31742  22871478.2064   22871480.4684   22871476.8324
      3208.1934       2499.9014
  -5546188.94943  -4275136.11842  24909301.1684   24909303.1644   24909297.9194
      3064.6754       2388.0514
 -13650148.80143 -10566704.77342  22984639.5834   22984640.6764   22984638.3374
     -3353.4014      -2613.0504
 -17835898.36843 -13841380.79442  21829060.4684   21829062.2634   21829059.8744
      -529.8224       -412.8594
  -2464126.97643  -1888005.91342  24941359.6164   24941363.0984   24941361.0834
     -1663.5724      -1296.2984
  -5333767.17443  -4109076.84242  24699589.2074   24699592.4134   24699588.4104
      3291.3084       2564.6514
  -5534730.21043  -4260845.52242  24711351.3584   24711352.4324   24711350.9454
     -3417.5874      -2663.0574
 -10110095.38743  -7872332.93942  22501015.8284   22501017.0324   22501014.2814
      2093.1384       1631.0094
 05  9 20  1  6 30.0000000  0 11G28G11G 1G20G 7G19G14G 9G24G22G31
  -9161692.87343  -7128572.64742  24055298.6374   24055301.8114   24055298.6714
     -1614.2264      -1257.8364
 -27718138.98543 -21546990.17942  20466302.4164   20466304.1354   20466302.4064
       454.9344        354.4814
 -20898875.44443 -16235525.06042  21830641.0324   21830644.4954   21830640.6734
      1817.2194       1416.0044
 -15355205.86443 -11914834.66842  22853185.4054   22853190.1334   22853185.5784
      3200.1874       2493.6374
  -5638005.52643  -4346681.47742  24891827.2064   24891830.9224   24891827.2954
      3057.2084       2382.2424
 -13549409.67543 -10488206.74242  23003810.6204   23003810.9234   23003809.7764
     -3362.0314      -2619.7504
 -17819685.40243 -13828747.30942  21832146.0614   21832147.4014   21832145.3824
      -550.2574       -428.7764
  -2413920.06543  -1848883.63042  24950912.6694   24950917.2654   24950913.0034
     -1682.6444      -1311.1504
  -5432463.55343  -4185983.10342  24680806.9074   24680810.7154   24680806.4944
      3289.0824       2562.9204
  -5432149.94743  -4180912.85342  24730871.4444   24730873.5144   24730870.9834
     -3420.1434      -2665.0644
 -10172617.51043  -7921051.48242  22489118.0844   22489119.8244   22489117.4374
      2075.6894       1617.4174
 05  9 20  1  7  0.0000000  0 11G28G11G 1G20G 7G19G14G 9G24G22G31
  -9113025.10043  -7090649.68842  24064560.7924   24064563.1614   24064560.3154
     -1630.0694      -1270.1814
 -27731540.04943 -21557432.56742  20463752.3584   20463754.2494   20463752.0054
       439.0694        342.1384
 -20953113.86243 -16277788.74942  21820320.4144   21820323.2444   21820319.5014
      1799.2654       1402.0234
 -15451075.78043 -11989538.47242  22834942.8984   22834945.8234   22834943.1104
      3191.6484       2487.0064
  -5729595.17943  -4418050.03142  24874399.7264   24874403.1784   24874398.0524
      3049.5504       2376.2674
 -13448399.93343 -10409497.88242  23023030.7014   23023032.7144   23023029.8984
     -3371.3064      -2626.9744
 -17802853.66843 -13815631.66842  21835349.0284   21835350.5894   21835348.5254
      -571.2364       -445.1094
  -2363143.38543  -1809317.35842  24960575.9174   24960579.5454   24960577.0324
     -1701.8364      -1326.1014
  -5531089.64943  -4262834.58642  24662040.5774   24662043.9724   24662039.3394
      3286.5184       2560.9264
  -5329497.53843  -4100923.97942  24750405.7624   24750404.8404   24750405.1624
     -3422.5844      -2666.9504
 -10234609.39443  -7969356.84742  22477321.1984   22477322.9124   22477320.2644
      2057.8204       1603.4904
 05  9 20  1  7 30.0000000  0 11G28G11G 1G20G 7G19G14G 9G24G22G31
  -9063887.25943  -7052360.42842  24073910.2094   24073912.6024   24073909.6444
     -1645.8914      -1282.5024
 -27744467.70043 -21567506.06242  20461292.8904   20461294.0974   20461292.1384
       422.6574        329.3414
 -21006819.67943 -16319637.41842  21810099.8924   21810103.6774   21810099.4794
      1781.0224       1387.8134
 -15546697.83943 -12064049.13342  22816747.6694   22816750.2504   22816747.5894
      3182.9344       2480.1934
  -5820955.50743  -4489239.88742  24857013.4574   24857016.5614   24857012.4454
      3041.4604       2369.9664
 -13347121.38043 -10330579.54242  23042304.2154   23042305.8044   23042303.1884
     -3380.7334      -2634.3284
 -17785404.11243 -13802034.60342  21838668.8124   21838670.9684   21838668.4524
      -592.1664       -461.4304
  -2311798.41743  -1769308.30842  24970348.1664   24970349.9654   24970347.9014
     -1721.1774      -1341.1764
  -5629644.14743  -4339630.29242  24643286.8134   24643289.0654   24643284.6234
      3283.6504       2558.6904
  -5226774.55243  -4020880.07742  24769953.0214   24769954.9044   24769952.7294
     -3425.3694      -2669.1114
 -10296068.69343  -8017247.21342  22465624.7064   22465628.7404   22465624.8644
      2039.4724       1589.2074
 05  9 20  1  8  0.0000000  0 11G28G11G 1G20G 7G19G14G 9G24G22G31
  -9014281.63043  -7013706.69942  24083349.8604   24083353.8454   24083349.4924
     -1660.9684      -1294.2744
 -27756921.91943 -21577210.64642  20458922.4624   20458924.1694   20458922.0144
       407.5244        317.5604
 -21059991.22443 -16361069.77442  21799981.9804   21799985.7924   21799981.7534
      1763.7114       1374.3214
 -15642071.25343 -12138366.04642  22798598.5584   22798601.2734   22798597.1604
      3175.2074       2474.1854
  -5912084.47843  -4560249.48842  24839672.8994   24839674.3444   24839671.7844
      3034.1414       2364.2714
 -13245576.81043 -10251453.90642  23061626.9224   23061628.8994   23061625.8394
     -3388.8904      -2640.6964
 -17767337.67143 -13787956.85142  21842106.6894   21842108.6984   21842106.3184
      -612.2674       -477.0904
  -2259887.59543  -1728858.33842  24980225.4504   24980228.8404   24980226.0144
     -1739.5964      -1355.5244
  -5728126.21943  -4416369.55742  24624544.5974   24624547.8284   24624544.6344
      3281.8314       2557.2524
  -5123982.63043  -3940782.51542  24789514.1634   24789515.7824   24789514.0714
     -3427.3754      -2670.6824
 -10356993.31643  -8064720.94242  22454032.0214   22454034.1644   22454031.4824
      2022.1384       1575.6894
 05  9 20  1  8 30.0000000  0 11G28G11G 1G20G 7G19G14G 9G24G22G31
  -8964210.53943  -6974690.27042  24092879.0704   24092880.7754   24092877.2764
     -1676.3244      -1306.2224
 -27768901.75843 -21586545.58442  20456642.2974   20456644.4534   20456642.3454
       391.5994        305.1404
 -21112626.90843 -16402084.58142  21789966.2674   21789968.9954   21789965.6834
      1745.7424       1360.3054
 -15737193.94643 -12212487.58442  22780497.1584   22780499.1854   22780496.4724
      3166.6114       2467.5034
  -6002979.79543  -4631077.02842  24822376.3564   24822378.4774   24822374.5174
      3025.9074       2357.8514
 -13143768.79143 -10172123.01642  23081000.5884   23081002.4124   23080999.8424
     -3397.8684      -2647.6844
 -17748654.57043 -13773398.58042  21845662.5794   21845664.1134   21845661.7904
      -632.9644       -493.2194
  -2207412.76043  -1687968.81842  24990211.0524   24990213.7634   24990209.7464
     -1758.1444      -1369.9834
  -5826534.35143  -4493051.22442  24605818.0614   24605821.9514   24605817.4814
      3279.0334       2555.1054
  -5021123.42243  -3860632.46742  24809087.2784   24809086.1634   24809088.9614
     -3429.6894      -2672.4994
 -10417381.05643  -8111776.31242  22442540.5004   22442543.0334   22442539.7174
      2004.0324       1561.5854
 05  9 20  1  9  0.0000000  0 11G28G11G 1G20G 7G19G14G 9G24G22G31
  -8913675.75343  -6935312.52542  24102495.4564   24102499.2544   24102494.1064
     -1691.8964      -1318.3674
 -27780406.43943 -21595510.27242  20454453.7794   20454454.8744   20454453.1374
       375.8134        292.8414
 -21164724.91543 -16442680.41442  21780051.4394   21780055.3294   21780051.1974
      1727.8674       1346.3924
 -15832064.71443 -12286412.82542  22762443.5574   22762447.3264   22762443.2364
      3158.5344       2461.1824
  -6093639.04143  -4701720.58742  24805124.7764   24805126.8514   24805122.3324
      3018.1234       2351.7814
 -13041699.61143 -10092588.60742  23100424.2784   23100424.6324   23100423.0344
     -3406.2604      -2654.2494
 -17729355.84043 -13758360.60542  21849335.2314   21849336.9864   21849334.8784
      -653.2364       -509.0094
  -2154376.06843  -1646641.57342  25000304.5414   25000307.5804   25000304.8524
     -1777.0254      -1384.6954
  -5924867.50443  -4569674.42342  24587105.4224   24587109.2244   24587104.5044
      3276.7654       2553.3154
  -4918198.25943  -3780430.92842  24828674.6224   24828672.8414   24828674.9064
     -3431.6804      -2674.0304
 -10477229.77643  -8158411.66942  22431150.9644   22431154.5094   22431150.9264
      1986.1614       1547.6614
 05  9 20  1  9 30.0000000  0 11G28G11G 1G20G 7G19G14G 9G24G22G31
  -8862679.52843  -6895575.20242  24112199.7934   24112201.4084   24112199.0494
     -1707.0584      -1330.1684
 -27791435.65843 -21604104.46842  20452355.0574   20452356.0734   20452354.3604
       360.0364        280.5494
 -21216283.57243 -16482855.97842  21770240.4444   21770244.1574   21770239.9324
      1709.8534       1332.3484
 -15926682.16743 -12360140.67842  22744438.6004   22744441.2044   22744437.6254
      3150.0074       2454.5654
  -6184059.98643  -4772178.46142  24787917.3674   24787920.1794   24787915.3704
      3010.4974       2345.8424
 -12939371.55743 -10012852.46842  23119896.7444   23119897.7174   23119895.1614
     -3414.9424      -2660.9944
 -17709442.44843 -13742843.66542  21853124.0324   21853125.9164   21853123.6224
      -673.8904       -525.1134
  -2100779.50143  -1604878.03142  25010503.8284   25010505.3244   25010502.2534
     -1795.9744      -1399.4544
  -6023124.28943  -4646238.11742  24568408.0404   24568411.8384   24568407.5384
      3274.1514       2551.2894
  -4815208.76743  -3700179.35442  24848272.6964   24848273.6124   24848271.8384
     -3433.6894      -2675.6024
 -10536537.10843  -8204625.18342  22419865.7184   22419868.3304   22419865.6334
      1967.9724       1533.4894
 05  9 20  1 10  0.0000000  0 11G28G11G 1G20G 7G19G14G 9G24G22G31
  -8811224.51143  -6855480.39942  24121990.5554   24121993.8094   24121991.1434
     -1722.4924      -1342.2014
 -27801989.00543 -21612327.85442  20450346.7304   20450347.9034   20450346.2814
       343.9644        268.0274
 -21267301.35843 -16522610.08442  21760532.3624   21760535.1144   21760531.5024
      1691.7244       1318.2214
 -16021045.23943 -12433670.29842  22726481.5724   22726483.7644   22726480.8104
      3141.3134       2447.7574
  -6274240.42443  -4842448.92742  24770755.6144   24770759.5374   24770754.7714
      3002.0204       2339.2404
 -12836787.05843  -9932916.51542  23139418.9284   23139419.1064   23139417.4034
     -3423.5844      -2667.7404
 -17688915.57943 -13726848.69842  21857030.1704   21857032.3194   21857030.0294
      -694.4654       -541.1544
  -2046625.50843  -1562680.14042  25020806.4364   25020812.1944   25020806.9104
     -1814.3884      -1413.8164
  -6121303.78343  -4722741.63142  24549725.0704   24549728.1074   24549724.5694
      3271.4484       2549.1784
  -4712156.69343  -3619879.09342  24867882.2124   24867883.7994   24867881.5784
     -3436.0984      -2677.4814
 -10595301.23743  -8250415.41442  22408683.3824   22408686.0964   22408683.4424
      1949.7694       1519.2974
 05  9 20  1 10 30.0000000  0 11G28G11G 1G20G 7G19G14G 9G24G22G31
  -8759312.69043  -6815029.64042  24131869.4084   24131871.4974   24131868.4354
     -1737.6914      -1354.0374
 -27812065.46243 -21620179.64142  20448429.3884   20448430.6164   20448428.8204
       328.2754        255.7994
 -21317776.56043 -16561941.39742  21750927.0694   21750930.4044   21750926.6364
      1673.8304       1304.2864
 -16115152.03643 -12507000.24142  22708573.2834   22708576.2674   22708573.3664
      3133.0674       2441.3614
  -6364177.86943  -4912530.04842  24753641.3674   24753644.8344   24753640.9024
      2994.2864       2333.2154
 -12733948.52743  -9852782.61042  23158987.7864   23158988.4404   23158985.6914
     -3431.8224      -2674.1584
 -17667775.72143 -13710376.07642  21861053.5204   21861054.9944   21861052.8834
      -714.4414       -556.7014
  -1991915.82043  -1520049.24242  25031219.1814   25031222.3484   25031219.6424
     -1832.6594      -1428.0524
  -6219404.70243  -4799183.89142  24531056.4354   24531060.7764   24531057.0144
      3269.0974       2547.3514
  -4609043.12243  -3539530.88342  24887503.8924   24887506.1694   24887503.5064
     -3437.6974      -2678.7344
 -10653520.25743  -8295780.87742  22397604.7944   22397607.0874   22397603.9204
      1931.8304       1505.3214
 05  9 20  1 11  0.0000000  0 10G28G11G 1G20G 7G19G14G24G22G31
  -8706945.86843  -6774224.32242  24141834.7944   24141837.4274   24141833.7674
     -1753.3454      -1366.2274
 -27821664.45543 -21627659.37742  20446602.4524   20446603.8264   20446602.1394
       311.7424        242.9174
 -21367707.59643 -16600848.67842  21741425.8854   21741429.1404   21741424.9534
      1655.0614       1289.6454
 -16209001.28243 -12580129.50042  22690715.0564   22690717.5814   22690714.3724
      3123.8014       2434.1214
  -6453870.20643  -4982420.18342  24736574.0074   24736578.6774   24736573.3654
      2985.2294       2326.1424
 -12630858.40743  -9772452.67642  23178604.7604   23178604.8864   23178603.0074
     -3440.7594      -2681.1234
 -17646023.88843 -13693426.58342  21865192.3524   21865194.1424   21865191.8144
      -735.4744       -573.1024
  -6317425.66943  -4875563.87642  24512405.2154   24512408.3904   24512403.6844
      3265.8864       2544.8484
  -4505869.58143  -3459135.92242  24907132.6064   24907138.6644   24907135.7944
     -3440.5504      -2680.9494
 -10711191.94143  -8340719.86042  22386629.6344   22386631.7714   22386629.6394
      1912.9334       1490.6094
 05  9 20  1 11 30.0000000  0 10G28G11G 1G20G 7G19G14G24G22G31
  -8654126.75943  -6733066.56842  24151886.0324   24151886.4904   24151885.5934
     -1768.1644      -1377.7804
 -27830785.75343 -21634766.87742  20444866.4744   20444868.2264   20444866.0304
       295.9984        230.6434
 -21417092.93043 -16639330.74842  21732028.1534   21732031.2634   21732027.5704
      1636.9884       1275.5624
 -16302591.49943 -12653056.91342  22672905.1914   22672907.5574   22672904.8794
      3115.1974       2427.4224
  -6543315.03643  -5052117.44142  24719552.5594   24719555.7224   24719551.5154
      2977.2244       2319.9104
 -12527519.09443  -9691928.54042  23198270.0304   23198270.4294   23198268.0474
     -3448.8804      -2687.4344
 -17623661.22743 -13676001.13242  21869447.6574   21869450.1294   21869447.2184
      -755.6764       -588.8404
  -6415365.56343  -4951880.69742  24493768.0644   24493769.5434   24493767.5024
      3263.2604       2542.7884
  -4402637.53943  -3378695.51342  24926780.6604   24926783.2294   24926780.6384
     -3441.9224      -2682.0204
 -10768314.06643  -8385230.61242  22375760.4984   22375762.5074   22375759.8294
      1894.7764       1476.4264
 05  9 20  1 12  0.0000000  0 10G28G11G 1G20G 7G19G14G24G22G31
  -8600857.58443  -6691558.10942  24162023.3284   24162024.5364   24162022.3404
     -1783.0944      -1389.4384
 -27839428.61543 -21641501.57942  20443221.7534   20443223.5514   20443221.5864
       280.2984        218.4124
 -21465931.12443 -16677386.47042  21722734.6074   21722737.3954   21722734.0314
      1618.9674       1261.5364
 -16395921.59843 -12725781.64042  22655145.6014   22655148.2744   22655144.6274
      3106.6804       2420.8004
  -6632510.22043  -5121620.19442  24702578.9784   24702581.6824   24702578.0314
      2968.9174       2313.4444
 -12423932.99243  -9611212.12642  23217980.8974   23217982.2144   23217979.7364
     -3456.7494      -2693.5574
 -17600688.39843 -13658100.22242  21873819.5514   21873821.1104   21873818.9904
      -775.8014       -604.5354
  -6513223.51343  -5028133.66642  24475145.9814   24475147.6014   24475145.1464
      3260.3314       2540.5204
  -4299348.76943  -3298210.73942  24946436.6354   24946437.3624   24946437.5714
     -3443.9354      -2683.5924
 -10824884.85743  -8429311.73642  22364994.4924   22364997.8084   22364993.9404
      1876.5614       1462.2464
 05  9 20  1 12 30.0000000  0 10G28G11G 1G20G 7G19G14G24G22G31
  -8547140.49643  -6649700.61642  24172244.3694   24172247.4904   24172244.4554
     -1797.9494      -1401.0084
 -27847592.32143 -21647862.90942  20441668.2864   20441670.0884   20441668.0584
       264.1854        205.8674
 -21514220.40143 -16715014.46042  21713544.8294   21713548.1424   21713544.4654
      1600.5744       1247.2014
 -16488989.97243 -12798302.41742  22637434.5434   22637438.2444   22637433.9404
      3097.9304       2413.9744
  -6721453.27643  -5190926.47442  24685654.5544   24685657.5404   24685653.7274
      2960.5574       2306.9334
 -12320102.62543  -9530305.36242  23237739.2534   23237740.8224   23237738.5454
     -3464.9444      -2699.9644
 -17577106.60543 -13639724.79342  21878307.2134   21878309.0754   21878305.9434
      -796.1674       -620.3774
  -6610997.93343  -5104321.52042  24456538.7374   24456542.9154   24456538.9074
      3258.1714       2538.8424
  -4196004.52443  -3217682.74042  24966102.9964   24966103.4114   24966102.5134
     -3445.5034      -2684.8044
 -10880902.06143  -8472961.50942  22354335.2274   22354338.1674   22354335.0954
      1858.1784       1447.9254
 05  9 20  1 13  0.0000000  0 10G28G11G 1G20G 7G19G14G24G22G31
  -8492978.06143  -6607496.09542  24182551.4714   24182553.3484   24182551.0614
     -1812.2684      -1412.1594
 -27855276.84543 -21653850.85042  20440206.5944   20440207.7234   20440205.9944
       248.2184        193.4224
 -21561959.48943 -16752213.73742  21704460.8644   21704464.0504   21704460.0754
      1582.1944       1232.8794
 -16581795.05643 -12870618.03742  22619774.2904   22619776.5364   22619773.5544
      3089.2834       2407.2504
  -6810142.16643  -5260034.70042  24668777.2634   24668780.8104   24668776.4414
      2951.8444       2300.1444
 -12216030.09843  -9449209.90242  23257543.4604   23257544.8034   23257541.9114
     -3473.1204      -2706.3164
 -17552917.11343 -13620875.83142  21882910.0324   21882912.1164   21882909.6844
      -816.5074       -636.2304
  -6708687.76543  -5180443.43342  24437950.1324   24437953.6304   24437948.8004
      3255.4074       2536.6794
  -4092606.45243  -3137112.77842  24985778.7294   24985778.9474   24985778.7764
     -3447.2794      -2686.1864
 -10936363.92243  -8516178.53742  22343780.6624   22343783.9224   22343780.7084
      1839.4864       1433.3604
 05  9 20  1 13 30.0000000  0 10G28G11G 1G20G 7G19G14G24G22G31
  -8438372.42343  -6564946.25842  24192941.9004   24192944.1824   24192942.1054
     -1827.3134      -1423.8874
 -27862481.30843 -21659464.71942  20438834.7954   20438836.7454   20438834.6364
       232.0804        180.8434
 -21609146.65143 -16788982.94142  21695481.0714   21695484.5174   21695480.6164
      1563.7084       1218.4734
 -16674335.74243 -12942727.62842  22602165.0284   22602166.9304   22602163.9894
      3080.2954       2400.2374
  -6898574.38243  -5328942.91442  24651949.7364   24651952.7134   24651948.3594
      2943.1454       2293.3574
 -12111718.51043  -9367928.17842  23277393.5224   23277394.5764   23277392.4254
     -3481.0624      -2712.5244
 -17528121.00843 -13601554.18142  21887628.5414   21887630.1304   21887628.1154
      -836.6734       -651.9534
  -6806291.47743  -5256498.27442  24419377.2534   24419379.4814   24419375.6204
      3252.3504       2534.2904
  -3989155.83543  -3056501.90642  25005464.9474   25005465.2914   25005464.4634
     -3449.1594      -2687.6514
 -10991268.14343  -8558961.04842  22333332.6594   22333335.6214   22333332.6354
      1820.9484       1418.8984
 05  9 20  1 14  0.0000000  0 10G28G11G 1G20G 7G19G14G24G22G31
  -8383325.91943  -6522052.86542  24203417.6704   24203417.8484   24203416.7534
     -1842.4824      -1435.6874
 -27869205.44143 -21664704.30342  20437555.7964   20437557.1104   20437555.1554
       216.0104        168.3074
 -21655780.48443 -16825320.97242  21686606.7924   21686610.4994   21686606.6544
      1545.0634       1203.9354
 -16766610.76043 -13014630.18842  22584605.2284   22584607.3834   22584603.5634
      3071.1714       2393.1144
  -6986747.76743  -5397649.44742  24635170.8254   24635173.1644   24635170.2554
      2934.5244       2286.6354
 -12007169.87943  -9286461.71442  23297288.6804   23297288.6054   23297287.3124
     -3489.0724      -2718.7744
 -17502718.93543 -13581760.35642  21892462.2404   21892464.4704   21892461.9074
      -857.0184       -667.8284
  -6903808.17643  -5332485.31042  24400818.4494   24400823.6044   24400818.1234
      3248.9864       2531.6764
  -3885654.24643  -2975851.33142  25025161.2254   25025160.4874   25025161.7254
     -3451.2314      -2689.2634
 -11045613.22943  -8601307.86042  22322992.4714   22322994.3394   22322991.2064
      1801.9714       1404.1294
 05  9 20  1 14 30.0000000  0 10G28G11G 1G20G 7G19G14G24G22G31
  -8327841.04943  -6478817.88642  24213976.7584   24213978.1134   24213975.6614
     -1856.8134      -1446.8554
 -27875448.61743 -21669569.11742  20436367.5604   20436369.2004   20436367.2934
       199.9934        155.8484
 -21701859.42043 -16861226.62442  21677838.2834   21677841.7564   21677838.1514
      1526.5884       1189.5594
 -16858618.18543 -13086324.25442  22567096.4894   22567099.2704   22567096.5484
      3062.2794       2386.2034
  -7074659.96343  -5466152.44742  24618441.4044   24618445.3384   24618441.4334
      2926.1484       2280.1194
 -11902386.62243  -9204812.43042  23317227.4204   23317229.5774   23317226.5024
     -3496.5904      -2724.5984
 -17476712.08243 -13561495.27042  21897411.4434   21897413.5674   21897410.6894
      -876.9864       -683.3554
  -7001236.48043  -5408403.45742  24382279.3774   24382282.8884   24382278.0534
      3245.9624       2529.3274
  -3782103.36443  -2895162.29842  25044865.3444   25044864.6414   25044865.1504
     -3452.6964      -2690.4084
 -11099396.93143  -8643217.23542  22312756.8954   22312759.9514   22312756.0974
      1783.3564       1389.6354
 05  9 20  1 15  0.0000000  0 10G28G11G 1G20G 7G19G14G24G22G31
  -8271920.03743  -6435243.07742  24224616.9004   24224618.9724   24224616.5874
     -1871.6084      -1458.3944
 -27881210.08743 -21674058.57542  20435271.4924   20435272.6454   20435270.7774
       183.5404        143.0224
 -21747381.92943 -16896698.69642  21669175.8034   21669178.8924   21669175.3484
      1507.6774       1174.8124
 -16950356.76643 -13157808.83442  22549639.6614   22549641.9134   22549639.0194
      3053.0434       2378.9784
  -7162308.58143  -5534450.07042  24601762.7244   24601764.4514   24601761.7114
      2916.8924       2272.8924
 -11797371.07343  -9122982.18042  23337211.7474   23337213.8044   23337211.2454
     -3504.9094      -2731.0974
 -17450101.69443 -13540759.89742  21902475.4744   21902477.3194   21902474.9284
      -897.5164       -699.3574
  -7098574.91943  -5484251.58242  24363758.1984   24363759.8574   24363757.2204
      3242.5334       2526.6444
  -3678504.21343  -2814435.67342  25064579.3504   25064578.1834   25064579.2024
     -3454.8264      -2692.0834
 -11152617.19043  -8684687.56342  22302629.9504   22302632.5964   22302628.9874
      1764.0914       1374.6164
 05  9 20  1 15 30.0000000  0 10G28G11G 1G20G 7G19G14G24G22G31
  -8215565.15143  -6391330.19542  24235340.5514   24235343.9774   24235340.3014
     -1885.8334      -1469.5034
 -27886489.73243 -21678172.58242  20434266.5184   20434267.9474   20434265.9414
       167.7624        130.7234
 -21792346.79943 -16931736.24342  21660619.5814   21660622.1514   21660618.7704
      1489.4194       1160.5864
 -17041825.56943 -13229083.19842  22532233.0734   22532236.3734   22532232.3834
      3044.3744       2372.2334
  -7249691.52543  -5602540.66242  24585134.0894   24585136.2634   24585133.7134
      2908.1104       2266.0574
 -11692126.02543  -9040973.05842  23357239.5414   23357240.3494   23357238.4904
     -3512.0304      -2736.6634
 -17422888.81443 -13519555.05242  21907653.7204   21907655.6354   21907652.7714
      -917.1944       -714.6904
  -7195822.24043  -5560028.73442  24345251.5854   24345254.9744   24345251.2674
      3239.6954       2524.4304
  -3574858.21443  -2733672.62542  25084301.8124   25084304.5214   25084301.2784
     -3455.9824      -2692.9634
 -11205272.28243  -8725717.50642  22292608.8524   22292612.7474   22292609.0464
      1745.5884       1360.2044
 05  9 20  1 16  0.0000000  0 10G28G11G 1G20G 7G19G14G24G22G31
  -8158778.94643  -6347081.22542  24246147.9734   24246149.9684   24246146.7024
     -1899.9404      -1480.4524
 -27891287.30543 -21681910.95342  20433353.8614   20433355.1004   20433353.3674
       151.8154        118.2934
 -21836752.64643 -16966338.18642  21652168.8714   21652172.0554   21652168.3884
      1470.9124       1146.1584
 -17133022.97743 -13300146.07842  22514879.4574   22514881.2884   22514878.4354
      3035.4604       2365.2994
  -7336806.48543  -5670422.46142  24568556.9924   24568558.8224   24568556.0514
      2899.4514       2259.3184
 -11586653.76043  -8958786.87642  23377308.7884   23377311.3624   23377308.6764
     -3519.5124      -2742.4874
 -17395074.59043 -13497881.62542  21912946.5364   21912948.1754   21912945.6834
      -937.1484       -730.2544
  -7292977.53943  -5635734.15342  24326763.4444   24326766.8794   24326761.8084
      3237.0214       2522.3464
  -3471167.09643  -2652874.42742  25104034.4304   25104035.2814   25104034.0484
     -3457.0944      -2693.8314
 -11257360.33343  -8766305.58842  22282696.7064   22282700.7844   22282697.3454
      1726.7134       1345.5004
 05  9 20  1 16 30.0000000  0 10G28G11G 1G20G 7G19G14G24G22G31
  -8101563.83943  -6302498.03942  24257035.8784   24257034.8064   24257034.9434
     -1914.0214      -1491.4374
 -27895602.02943 -21685273.07542  20432532.5464   20432534.1814   20432532.2384
       136.1224        106.0614
 -21880598.09743 -17000503.46342  21643825.3374   21643828.9574   21643824.8534
      1452.5334       1131.8414
 -17223947.52743 -13370996.32542  22497576.4154   22497579.5994   22497575.7814
      3026.5264       2358.3194
  -7423651.17643  -5738093.65842  24552029.7974   24552033.3264   24552029.9134
      2890.7374       2252.5224
 -11480956.44643  -8876425.36742  23397422.9194   23397424.9934   23397422.6404
     -3526.5274      -2747.9254
 -17366660.50543 -13475740.77042  21918353.3294   21918355.7154   21918352.8744
      -956.6274       -745.4204
  -7390039.50943  -5711366.82642  24308293.2164   24308297.6284   24308293.4764
      3234.2904       2520.2194
  -3367432.25743  -2572042.13542  25123776.0604   25123776.6064   25123775.3794
     -3458.1634      -2694.6724
 -11308879.49643  -8806450.40342  22272893.4864   22272896.3864   22272893.2904
      1708.1144       1330.9944
 05  9 20  1 17  0.0000000  0 10G28G11G 1G20G 7G19G14G24G22G31
  -8043922.05743  -6257582.39142  24268005.9034   24268005.5264   24268003.2634
     -1928.9724      -1503.0884
 -27899433.53643 -21688258.66742  20431803.5594   20431805.0884   20431802.9754
       118.8624         92.6114
 -21923881.89243 -17034231.07742  21635589.0124   21635592.1054   21635588.0684
      1432.6174       1116.3134
 -17314598.14843 -13441633.14542  22480325.7514   22480328.6324   22480325.6524
      3016.2974       2350.3694
  -7510223.26043  -5805552.41542  24535556.7784   24535560.2104   24535555.0194
      2880.3944       2244.4634
 -11375036.82643  -8793890.61842  23417578.5694   23417580.7544   23417577.9894
     -3534.9744      -2754.5294
 -17337647.85443 -13453133.50642  21923874.2654   21923876.0924   21923873.8964
      -977.9034       -762.0294
  -7487006.65743  -5786925.66342  24289840.9404   24289843.3344   24289841.1274
      3229.5764       2516.5544
  -3263654.87843  -2491176.63742  25143523.2254   25143524.2294   25143523.2104
     -3460.7394      -2696.6834
 -11359827.93043  -8846150.47142  22263198.1394   22263201.5444   22263197.5584
      1687.9194       1315.2514
 05  9 20  1 17 30.0000000  0 10G28G11G 1G20G 7G19G14G24G22G31
  -7985856.30043  -6212336.35542  24279053.6774   24279055.6274   24279053.1864
     -1942.3704      -1513.5274
 -27902781.28043 -21690867.29842  20431166.0894   20431168.0354   20431165.9864
       103.5404         80.6714
 -21966602.51143 -17067519.85742  21627459.6834   21627462.6684   21627459.3534
      1414.6884       1102.3514
 -17404973.08143 -13512055.14342  22463129.2904   22463131.4214   22463128.6204
      3008.1104       2343.9674
  -7596520.45243  -5872796.98242  24519133.2984   24519138.2304   24519134.5314
      2871.9904       2237.9074
 -11268897.70943  -8711184.83542  23437775.9614   23437778.7104   23437775.6974
     -3541.6224      -2759.6804
 -17308037.31043 -13430060.34642  21929509.3264   21929510.9774   21929508.3734
      -997.0604       -776.9434
  -7583877.91943  -5862409.77442  24271406.0814   24271411.0254   24271405.8114
      3227.5394       2514.9624
  -3159836.76543  -2410279.41342  25163279.4924   25163280.3944   25163278.7654
     -3461.2314      -2697.0654
 -11410203.47943  -8885404.13742  22253613.1924   22253614.1854   22253611.4614
      1669.6274       1300.9914
 05  9 20  1 18  0.0000000  0 10G28G11G 1G20G 7G19G14G24G22G31
  -7927368.80443  -6166761.71042  24290182.1014   24290184.8834   24290182.9104
     -1956.4674      -1524.5214
 -27905645.05843 -21693098.81542  20430621.4784   20430622.9154   20430620.8934
        87.4914         68.1774
 -22008758.58943 -17100368.73442  21619437.4594   21619440.8264   21619436.6284
      1395.9174       1087.7354
 -17495071.00543 -13582261.28442  22445984.2694   22445986.5134   22445983.4994
      2998.7864       2336.7184
  -7682540.36543  -5939825.48342  24502765.1514   24502769.5374   24502765.8374
      2862.6524       2230.6364
 -11162541.18843  -8628309.62442  23458014.6304   23458017.2104   23458015.1504
     -3548.7244      -2765.2454
 -17277830.45343 -13406522.53742  21935257.1984   21935259.3894   21935256.6014
     -1016.9094       -792.3844
  -7680651.96943  -5937818.10942  24252990.5194   24252995.2334   24252990.6134
      3224.3054       2512.4464
  -3055978.94443  -2329351.22742  25183042.9374   25183042.6054   25183043.1884
     -3462.4064      -2697.9724
 -11460004.28243  -8924209.96642  22244135.6114   22244137.8134   22244135.2024
      1650.4624       1286.0724
 05  9 20  1 18 30.0000000  0 10G28G11G 1G20G 7G19G14G24G22G31
  -7868461.84343  -6120860.20342  24301393.6044   24301394.9744   24301390.8944
     -1971.4024      -1536.1784
 -27908024.44343 -21694952.88142  20430168.4214   20430170.1734   20430168.1364
        70.5574         54.9614
 -22050348.77543 -17132776.66142  21611522.8334   21611526.3424   21611522.6084
      1376.1994       1072.3404
 -17584890.49943 -13652250.46842  22428892.1884   22428893.6884   22428890.9664
      2988.6494       2328.8094
  -7768280.85643  -6006636.24842  24486449.2684   24486453.6484   24486448.0534
      2852.8174       2222.9724
 -11055969.44743  -8545266.72942  23478295.7294   23478297.5064   23478295.0374
     -3556.5604      -2771.3764
 -17247028.35643 -13382520.89042  21941118.3884   21941120.2584   21941117.5564
     -1037.3894       -808.3794
  -7777327.39543  -6013149.58642  24234594.7624   24234598.6414   24234594.2064
      3219.9974       2509.0844
  -2952083.01743  -2248393.34642  25202813.6274   25202813.7704   25202813.0094
     -3464.4954      -2699.5994
 -11509228.62243  -8962566.57942  22234768.2494   22234771.2314   22234767.8184
      1630.4284       1270.4454
 05  9 20  1 19  0.0000000  0 10G28G11G 1G20G 7G19G14G24G22G31
  -7809138.29843  -6074634.07642  24312682.0304   24312683.1034   24312680.3674
     -1983.9644      -1545.9424
 -27909919.10343 -21696429.24242  20429808.3134   20429809.7734   20429807.7904
        55.6384         43.3654
 -22091372.16843 -17164742.92842  21603716.6174   21603720.0394   21603716.0914
      1358.5444       1058.6134
 -17674430.56243 -13722021.92442  22411853.4984   22411855.3724   22411852.1794
      2980.5064       2322.4744
  -7853739.77443  -6073227.59642  24470187.4134   24470191.6014   24470186.9014
      2844.3824       2216.4024
 -10949185.34243  -8462058.36342  23498616.8014   23498617.2274   23498615.5414
     -3562.3724      -2775.8744
 -17215632.72943 -13358056.76242  21947093.1004   21947094.9364   21947092.3544
     -1055.9024       -822.7704
  -7873903.28743  -6088403.51642  24216215.5854   24216219.6374   24216214.5394
      3218.0904       2507.6124
  -2848150.44043  -2167406.92142  25222592.2384   25222590.3424   25222592.0114
     -3464.5394      -2699.6474
 -11557874.88543  -9000472.75142  22225511.4234   22225514.1394   22225510.9644
      1612.4224       1256.4474
 05  9 20  1 19 30.0000000  0 10G28G11G 1G20G 7G19G14G24G22G31
  -7749400.54343  -6028085.17642  24324050.2944   24324051.8884   24324048.5254
     -1998.5794      -1557.3164
 -27911328.09343 -21697527.16042  20429540.0784   20429541.4494   20429539.6424
        38.6874         30.1494
 -22131827.14443 -17196266.26842  21596018.4164   21596021.6774   21596017.9184
      1338.8114       1043.2204
 -17763689.58543 -13791574.38342  22394867.7274   22394869.8794   22394866.4604
      2970.4404       2314.6234
  -7938914.44443  -6139597.45142  24453979.3174   24453982.1304   24453978.1634
      2834.3074       2208.5474
 -10842191.11043  -8378686.22942  23518977.6704   23518978.0364   23518975.2794
     -3570.0514      -2781.8694
 -17183644.32043 -13333130.72642  21953180.1594   21953182.5784   21953179.6904
     -1076.2504       -838.6424
  -7970378.00443  -6163578.63242  24197856.8534   24197860.7114   24197857.6414
      3214.1144       2504.4994
  -2744182.30743  -2086392.82442  25242375.0284   25242376.5644   25242375.3584
     -3466.2304      -2700.9684
 -11605941.19943  -9037927.02342  22216365.1264   22216367.5724   22216364.8844
      1592.4254       1240.8444
 05  9 20  1 20  0.0000000  0 10G28G11G 1G20G 7G19G14G24G22G31
  -7689251.05143  -5981215.47342  24335495.7074   24335496.5474   24335494.3084
     -2012.5234      -1568.1994
 -27912251.79443 -21698246.92742  20429364.2204   20429365.7994   20429363.6444
        22.2304         17.3194
 -22171712.77443 -17227345.97042  21588428.4214   21588431.5304   21588427.8114
      1319.5264       1028.2014
 -17852666.43243 -13860906.95442  22377935.9714   22377938.0614   22377935.4454
      2960.6044       2306.9574
  -8023802.97343  -6205744.36542  24437826.3994   24437826.6994   24437824.8364
      2824.3554       2200.7924
 -10734989.49643  -8295152.54042  23539376.0114   23539377.9344   23539375.0174
     -3577.1434      -2787.3794
 -17151064.95243 -13307744.20042  21959379.9264   21959382.0274   21959379.2944
     -1096.2544       -854.2184
  -8066750.39743  -6238674.02042  24179519.1294   24179522.6054   24179517.9974
      3210.3124       2501.5384
  -2640180.20543  -2005352.25242  25262165.3424   25262167.8534   25262163.2174
     -3467.8394      -2702.2104
 -11653425.91643  -9074928.09642  22207328.7604   22207331.5564   22207328.5854
      1572.6564       1225.4404
 05  9 20  1 20 30.0000000  0 10G28G11G 1G20G 7G19G14G24G22G31
  -7628692.27143  -5934026.83042  24347019.8144   24347020.5524   24347019.2404
     -2025.3304      -1578.1684
 -27912689.60543 -21698588.08042  20429280.9314   20429282.4184   20429280.4784
         6.5314          5.0994
 -22211027.63343 -17257980.91442  21580947.1694   21580950.3224   21580946.7304
      1300.9644       1013.7504
 -17941359.62543 -13930018.51042  22361057.8694   22361060.0374   22361057.4024
      2951.7934       2300.1034
  -8108402.82543  -6271666.35242  24421727.5064   24421729.6814   24421726.2794
      2815.0744       2193.5714
 -10627582.77943  -8211459.02642  23559816.2134   23559816.1154   23559814.4164
     -3583.4344      -2792.2774
 -17117895.63443 -13281897.97442  21965691.8574   21965693.6134   21965690.9854
     -1115.4124       -869.1424
  -8163018.89543  -6313688.40742  24161199.6484   24161203.4304   24161198.6784
      3207.3554       2499.2434
  -2536145.44843  -1924286.23342  25281965.2294   25281964.2824   25281962.6904
     -3468.2994      -2702.5514
 -11700327.17843  -9111474.52942  22198403.2524   22198406.8184   22198403.1374
      1553.6034       1210.6104
 05  9 20  1 21  0.0000000  0 10G28G11G 1G20G 7G19G14G24G22G31
  -7567726.62243  -5886521.13342  24358620.5334   24358622.8354   24358620.7334
     -2038.8864      -1588.7504
 -27912641.05443 -21698550.24942  20429290.2424   20429291.7684   20429289.6704
        -9.7724         -7.6094
 -22249770.50543 -17288170.15242  21573574.2104   21573577.5154   21573573.8344
      1281.9064        998.9024
 -18029767.78343 -13998907.95042  22344234.5504   22344236.3864   22344233.7224
      2942.1534       2292.5844
  -8192711.81343  -6337361.66842  24405682.9284   24405686.3454   24405681.9464
      2805.4744       2186.0914
 -10519973.41643  -8127607.55442  23580293.6834   23580293.4974   23580292.1064
     -3590.2704      -2797.5824
 -17084137.71143 -13255593.09942  21972115.9894   21972117.6794   21972114.9774
     -1135.1604       -884.5324
  -8259182.05843  -6388620.73242  24142900.2814   24142904.0244   24142899.7234
      3203.7474       2496.4294
  -2432079.43143  -1843195.83642  25301768.3814   25301767.9064   25301767.1724
     -3469.3634      -2703.4024
 -11746643.27943  -9147565.00142  22189591.1494   22189592.4954   22189589.5034
      1533.9914       1195.3184
 05  9 20  1 21 30.0000000  0 10G28G11G 1G20G 7G19G14G24G22G31
  -7506356.81043  -5838700.50842  24370299.5534   24370302.0514   24370298.3294
     -2052.6234      -1599.4484
 -27912105.84143 -21698133.20142  20429392.3694   20429393.6864   20429391.6184
       -26.1704        -20.4044
 -22287940.29443 -17317912.83342  21566310.7944   21566314.1014   21566310.4354
      1262.4474        983.7104
 -18117889.55043 -14067574.21742  22327464.8794   22327468.1734   22327464.5934
      2932.3214       2284.9184
  -8276727.71243  -6402828.59242  24389695.9094   24389698.9464   24389695.2364
      2795.1954       2178.0594
 -10412163.93043  -8043600.19242  23600807.4794   23600809.3134   23600806.8734
     -3597.3074      -2803.0774
 -17049792.92443 -13228830.92242  21978651.4294   21978653.1304   21978650.0884
     -1154.8694       -899.9094
  -8355238.88943  -6463470.18842  24124621.0944   24124624.2784   24124620.7014
      3199.7664       2493.3114
  -2327983.48843  -1762082.14842  25321576.5594   25321576.7084   25321576.0544
     -3470.6154      -2704.3804
 -11792372.55343  -9183198.19542  22180887.7264   22180891.1154   22180886.9664
      1514.1804       1179.8744
 05  9 20  1 22  0.0000000  0 10G28G11G 1G20G 7G19G14G24G22G31
  -7444585.24843  -5790566.84542  24382054.1904   24382056.6054   24382052.1414
     -2066.2474      -1610.0744
 -27911083.69543 -21697336.72542  20429586.8394   20429588.0844   20429586.1274
       -42.6714        -33.2454
 -22325535.93943 -17347208.12742  21559156.9454   21559160.1844   21559156.3444
      1243.0584        968.6174
 -18205723.78143 -14136016.44142  22310750.9914   22310753.2904   22310750.2284
      2922.3784       2277.1734
  -8360448.08543  -6468065.24542  24373765.1764   24373767.0714   24373763.6844
      2785.0744       2170.1744
 -10304156.52543  -7959438.61842  23621361.7024   23621362.8034   23621360.4234
     -3604.0034      -2808.2954
 -17014862.55043 -13201612.44942  21985297.8604   21985300.2264   21985297.3604
     -1174.6424       -915.3084
  -8451188.15843  -6538235.84142  24106362.3564   24106366.2824   24106362.0764
      3195.9104       2490.3324
  -2223859.08243  -1680946.26442  25341391.5754   25341391.3014   25341389.3424
     -3471.7084      -2705.2294
 -11837513.15143  -9218372.68642  22172297.7914   22172300.8064   22172297.2704
      1494.4514       1164.5084
 05  9 20  1 22 30.0000000  0 10G28G11G 1G20G 7G19G14G24G22G31
  -7382414.47843  -5742122.08342  24393884.6934   24393887.9264   24393885.2654
     -2078.9874      -1619.9984
 -27909574.36443 -21696160.62542  20429873.7254   20429875.3524   20429873.3134
       -58.3354        -45.4624
 -22362556.25943 -17376055.11442  21552111.7344   21552115.2514   21552111.6414
      1224.5064        954.1524
 -18293268.97343 -14204233.44742  22294091.4084   22294094.2804   22294090.7824
      2913.4304       2270.1934
  -8443870.88443  -6533070.00942  24357889.8614   24357892.5194   24357889.0624
      2776.1614       2163.2394
 -10195954.12343  -7875125.07942  23641952.2364   23641953.4504   23641950.0964
     -3609.7094      -2812.7344
 -16979348.07943 -13173938.83042  21992056.7364   21992058.4354   21992056.0394
     -1193.3974       -929.9244
  -8547028.41843  -6612916.56342  24088124.0424   24088127.5834   24088125.0404
      3193.0184       2488.0874
  -2119707.46343  -1599789.18642  25361209.0054   25361211.9174   25361207.8334
     -3471.7944      -2705.2904
 -11882063.52543  -9253087.26042  22163820.2644   22163823.3294   22163819.9134
      1475.2614       1149.5504
 05  9 20  1 23  0.0000000  0 11G28G11G 1G25G20G 7G19G14G24G22G31
  -7319847.12743  -5693368.33142  24405790.5874   24405793.1624   24405789.7124
     -2092.0664      -1630.1894
 -27907577.54343 -21694604.66142  20430253.7554   20430255.2994   20430253.2084
       -74.6144        -58.1544
 -22398999.98943 -17404452.81542  21545176.4924   21545180.0344   21545176.0994
      1205.2374        939.1324
   -925512.91143   -674199.29342  25354864.9964   25354867.2524   25354864.2604
      3018.6574       2352.1924
 -18380523.62843 -14272224.06442  22277487.2314   22277490.3494   22277486.1744
      2903.7004       2262.6024
  -8526993.63943  -6597840.98842  24342072.2024   24342074.3314   24342070.3884
      2765.7784       2155.1504
 -10087558.85843  -7790661.25542  23662579.0484   23662579.8804   23662577.4574
     -3616.3274      -2817.9134
 -16943251.00043 -13145811.22742  21998925.5024   21998927.5074   21998924.8944
     -1212.9294       -945.1364
  -8642758.42043  -6687511.39242  24069907.3634   24069910.4794   24069906.7294
      3189.2724       2485.1484
  -2015529.92143  -1518611.91742  25381033.4834   25381034.6284   25381033.9344
     -3472.7224      -2706.0174
 -11926022.12343  -9287340.71642  22155455.6414   22155458.1204   22155454.9504
      1455.4454       1134.0964
 05  9 20  1 23 30.0000000  0 11G28G11G 1G25G20G 7G19G14G24G22G31
  -7256886.18243  -5644307.87442  24417772.5494   24417774.0074   24417771.5274
     -2105.2134      -1640.4294
 -27905093.05543 -21692668.69842  20430726.6424   20430727.8944   20430726.0104
       -91.0774        -70.9724
 -22434866.22443 -17432400.52242  21538351.6224   21538355.0904   21538351.0164
      1185.7824        923.9754
  -1016030.09843   -744732.13642  25337640.1204   25337643.5324   25337639.1994
      3015.8094       2349.9824
 -18467486.99843 -14339987.71242  22260937.9964   22260942.0224   22260937.7244
      2893.7994       2254.9144
  -8609814.39043  -6662376.65342  24326311.8544   24326313.9414   24326311.6094
      2755.6444       2147.2604
  -9978973.59443  -7706049.36142  23683242.7724   23683242.5654   23683241.0774
     -3622.8224      -2822.9764
 -16906572.47243 -13117230.55442  22005905.0784   22005907.3894   22005904.5114
     -1232.4594       -960.3554
  -8738376.91243  -6762019.28542  24051713.3574   24051715.4554   24051712.1984
      3185.4214       2482.1294
  -1911328.26843  -1437415.82542  25400863.2304   25400862.0214   25400862.3854
     -3473.9384      -2706.9694
 -11969387.47543  -9321131.90242  22147203.5654   22147206.1494   22147203.1204
      1435.5124       1118.5694
 05  9 20  1 24  0.0000000  0 11G28G11G 1G25G20G 7G19G14G24G22G31
  -7193533.63743  -5594942.28442  24429828.8944   24429830.1584   24429827.3704
     -2117.5964      -1650.0834
 -27902120.34543 -21690352.30042  20431292.2094   20431293.7314   20431291.8984
      -106.4844        -82.9784
 -22470153.70643 -17459897.24942  21531636.5424   21531639.8944   21531636.3694
      1167.2984        909.5804
  -1106455.17243   -815193.20742  25320433.5894   25320436.4804   25320432.9564
      3013.6044       2348.2524
 -18554156.87443 -14407522.64942  22244445.3414   22244448.7264   22244444.7144
      2884.7234       2247.8304
  -8692330.46643  -6726674.89342  24310609.0004   24310612.7744   24310608.8694
      2746.2364       2139.9174
  -9870200.51843  -7621291.14242  23703940.4684   23703943.0424   23703939.6564
     -3628.2984      -2827.2764
 -16869314.22043 -13088198.14642  22012995.8704   22012996.9884   22012995.2164
     -1250.9474       -974.7764
  -8833882.33643  -6836439.06942  24033538.6614   24033543.0114   24033538.4084
      3182.5814       2479.9364
  -1807103.07343  -1356201.38042  25420696.9364   25420695.6964   25420696.5424
     -3474.1944      -2707.1664
 -12012157.85043  -9354459.45542  22139064.0524   22139067.1424   22139063.7314
      1416.4554       1103.7244
 05  9 20  1 24 30.0000000  0 11G28G11G 1G25G20G 7G19G14G24G22G31
  -7129792.34343  -5545273.72942  24441957.5344   24441960.0554   24441955.6114
     -2131.0214      -1660.5394
 -27898659.38843 -21687655.45942  20431950.7054   20431952.4534   20431950.5304
      -123.6084        -96.3114
 -22504861.60843 -17486942.35442  21525032.1114   21525035.1224   21525031.7504
      1147.2854        893.9824
  -1196785.18743   -885580.18442  25303244.2494   25303247.7814   25303243.0914
      3009.1474       2344.7744
 -18640532.74343 -14474828.49342  22228008.1994   22228011.3404   22228008.3954
      2874.3534       2239.7434
  -8774539.81043  -6790734.11442  24294965.9104   24294968.8634   24294965.2674
      2734.5884       2130.8584
  -9761242.22743  -7536388.59642  23724674.5784   23724676.2224   23724673.8784
     -3634.9934      -2832.4484
 -16831477.78143 -13058715.19842  22020195.3994   22020197.0254   22020194.9264
     -1270.7634       -990.2134
  -8929273.45743  -6910769.78442  24015386.2864   24015391.3594   24015386.4564
      3177.8834       2476.2804
  -1702856.25643  -1274970.13042  25440535.0484   25440533.5104   25440532.3534
     -3475.1864      -2707.9284
 -12054331.80743  -9387322.28042  22131038.8474   22131041.5724   22131038.3934
      1395.8314       1087.6614
 05  9 20  1 25  0.0000000  0 11G28G11G 1G25G20G 7G19G14G24G22G31
  -7065665.03143  -5495304.45242  24454159.3284   24454162.8584   24454159.9684
     -2144.3854      -1670.9554
 -27894709.76343 -21684577.82442  20432702.4344   20432703.9674   20432701.7774
      -140.1414       -109.2124
 -22538988.84143 -17513534.98642  21518537.8284   21518540.9944   21518537.3134
      1127.5374        878.5844
  -1287017.33743   -955890.92242  25286072.4464   25286076.9134   25286072.5174
      3005.7244       2342.1194
 -18726613.09343 -14541904.06942  22211628.2034   22211631.1174   22211627.5014
      2864.0034       2231.6644
  -8856440.21743  -6854552.62142  24279379.8884   24279382.6164   24279378.8834
      2724.4374       2122.9334
  -9652101.07943  -7451343.56942  23745443.2864   23745445.3824   23745442.5854
     -3641.1584      -2837.2734
 -16793064.17043 -13028782.51342  22027505.2074   22027506.9514   22027504.4224
     -1290.4534      -1005.5604
  -9024548.67843  -6985010.21642  23997254.4434   23997260.2084   23997254.5644
      3173.8504       2473.1304
  -1598588.79843  -1193722.81942  25460374.9324   25460375.7404   25460376.1664
     -3476.1794      -2708.7104
 -12095907.55643  -9419718.97042  22123127.4844   22123129.5384   22123126.5014
      1375.4734       1071.7824
 05  9 20  1 25 30.0000000  0 11G28G11G 1G25G20G 7G19G14G24G22G31
  -7001154.16843  -5445036.30142  24466436.1234   24466436.8244   24466435.3334
     -2155.9564      -1679.9674
 -27890271.40343 -21681119.36642  20433546.9414   20433548.6484   20433546.3334
      -155.4914       -121.1594
 -22572534.54943 -17539674.48642  21512154.4254   21512157.8554   21512153.8514
      1109.1154        864.2544
  -1377148.93143  -1026123.34442  25268920.2894   25268925.3834   25268921.3594
      3003.5854       2340.4654
 -18812396.61043 -14608748.33142  22195304.7614   22195306.9544   22195303.7214
      2855.0414       2224.7244
  -8938029.34443  -6918128.57942  24263853.7694   24263856.3274   24263852.9964
      2714.7964       2115.4364
  -9542779.74743  -7366158.12342  23766246.1704   23766248.6894   23766245.0634
     -3646.8444      -2841.6904
 -16754075.62643 -12998401.82242  22034924.2594   22034926.3894   22034923.8864
     -1308.6564      -1019.7154
  -9119707.05943  -7059159.60342  23979147.9554   23979151.0174   23979147.8874
      3170.3404       2470.4024
  -1494302.01643  -1112460.41742  25480220.0544   25480220.7334   25480220.8454
     -3475.5464      -2708.2044
 -12136883.54043  -9451648.31242  22115329.1874   22115332.1814   22115329.4624
      1356.4274       1056.9714
 05  9 20  1 26  0.0000000  0 10G28G11G 1G25G20G 7G19G14G24G31
  -6936262.25743  -5394471.20642  24478784.8804   24478787.4224   24478783.3644
     -2169.1724      -1690.2524
 -27885343.80543 -21677279.68042  20434484.5754   20434486.3274   20434484.2544
      -172.1134       -134.1244
 -22605497.70443 -17565360.05042  21505881.3644   21505884.8494   21505881.0064
      1089.3244        848.8154
  -1467176.81743  -1096274.89342  25251789.6324   25251793.6104   25251788.5624
      2999.6514       2337.3824
 -18897881.71243 -14675360.08442  22179036.4824   22179039.3344   22179036.1164
      2844.7034       2216.6464
  -9019305.05343  -6981460.30842  24248388.2104   24248390.4964   24248386.8104
      2704.3984       2107.3084
  -9433280.56943  -7280834.13942  23787083.3184   23787086.2744   23787083.2764
     -3652.6144      -2846.1934
 -16714513.53243 -12967574.21742  22042452.9234   22042454.4624   22042452.1694
     -1328.0844      -1034.8834
  -9214746.80943  -7133216.56142  23961062.1364   23961064.9884   23961061.2644
      3166.3074       2467.2704
 -12177258.30643  -9483109.16442  22107646.8624   22107649.5944   22107646.9464
      1336.1554       1041.1484
 05  9 20  1 26 30.0000000  0 10G28G11G 1G25G20G 7G19G14G24G31
  -6870992.13643  -5343611.42942  24491204.6914   24491207.1694   24491204.3584
     -2181.7334      -1700.0454
 -27879926.94843 -21673058.75442  20435515.2664   20435517.0884   20435515.0074
      -188.3394       -146.7454
 -22637877.25943 -17590590.85642  21499720.1934   21499723.0024   21499719.5154
      1070.0024        833.7924
  -1557098.09443  -1166343.39042  25234677.2234   25234682.7094   25234676.8614
      2995.7824       2334.3624
 -18983067.30843 -14741738.44142  22162826.7504   22162829.6904   22162825.7214
      2834.8634       2208.9934
  -9100264.94543  -7044545.92742  24232982.3514   24232985.3804   24232981.3534
      2693.6864       2098.9844
  -9323605.95543  -7195373.40842  23807953.8314   23807955.4444   23807952.5114
     -3658.3364      -2850.6584
 -16674379.43443 -12936300.89042  22050090.7044   22050091.8934   22050089.5834
     -1346.9094      -1049.5354
  -9309666.97243  -7207180.31742  23942999.1164   23943003.4364   23942998.7994
      3162.3974       2464.2134
 -12217030.31243  -9514100.33642  22100078.8994   22100081.0194   22100078.1554
      1316.0254       1025.4904
 05  9 20  1 27  0.0000000  0 10G28G11G 1G25G20G 7G19G14G24G31
  -6805346.26843  -5292458.79842  24503697.1824   24503699.7874   24503696.0824
     -2194.0054      -1709.6064
 -27874020.89243 -21668456.63042  20436639.5374   20436640.8374   20436638.9774
      -204.9404       -159.7004
 -22669672.31043 -17615366.20742  21493669.4374   21493672.9874   21493668.9184
      1050.2584        818.3724
  -1646910.41043  -1236326.97742  25217587.1034   25217590.4184   25217588.8254
      2991.8374       2331.2964
 -19067952.10043 -14807882.42642  22146673.9294   22146676.3384   22146673.2824
      2824.8104       2201.1574
  -9180906.72143  -7107383.68142  24217636.7334   24217638.6854   24217635.3414
      2682.9134       2090.5794
  -9213758.39543  -7109777.91542  23828856.8234   23828859.2024   23828856.2674
     -3664.3584      -2855.3354
 -16633674.87943 -12904583.04642  22057835.9494   22057837.4534   22057835.3154
     -1366.1404      -1064.5464
  -9404466.22243  -7281049.85842  23924959.2634   23924964.1524   23924959.4644
      3158.0664       2460.8304
 -12256198.21543  -9544620.78042  22092624.2264   22092627.4084   22092624.4664
      1295.7104       1009.6454
 05  9 20  1 27 30.0000000  0 10G28G11G 1G25G20G 7G19G14G24G31
  -6739327.50243  -5241015.64142  24516260.2164   24516262.9224   24516260.1404
     -2206.1434      -1719.0774
 -27867625.26943 -21663473.03142  20437856.4944   20437857.9754   20437856.0194
      -220.9404       -172.1614
 -22700882.01343 -17639685.44442  21487730.4184   21487733.7414   21487730.1244
      1031.0104        803.3844
  -1736610.55643  -1306223.17842  25200518.0094   25200520.6014   25200517.5884
      2988.6944       2328.8534
 -19152535.05243 -14873791.19542  22130578.2104   22130580.3374   22130577.1954
      2814.7854       2193.3404
  -9261228.31143  -7169971.95742  24202351.3804   24202354.6214   24202351.0434
      2672.3864       2082.3744
  -9103740.46543  -7024049.69442  23849792.6114   23849794.6664   23849791.8164
     -3669.5174      -2859.3624
 -16592401.61443 -12872422.05742  22065690.1564   22065691.6504   22065689.7324
     -1384.8514      -1079.1124
  -9499143.06143  -7354823.99542  23906942.4714   23906946.9744   23906942.6424
      3154.2024       2457.8374
 -12294760.37343  -9574669.21742  22085287.1324   22085289.3924   22085286.7564
      1275.6694        994.0344
 05  9 20  1 28  0.0000000  0 10G28G11G 1G25G20G 7G19G14G24G31
  -6672938.29843  -5189283.77342  24528893.4134   24528896.1864   24528892.7854
     -2219.4424      -1729.4314
 -27860739.87143 -21658107.78842  20439166.8744   20439168.1644   20439166.3534
      -238.2584       -185.6664
 -22731505.44243 -17663547.84342  21481903.1484   21481905.8764   21481902.5194
      1010.5494        787.4224
  -1826195.78843  -1376029.81942  25183471.5214   25183473.1424   25183470.8024
      2983.7094       2324.9654
 -19236814.58243 -14939463.52542  22114540.3484   22114542.7954   22114539.5374
      2803.7644       2184.7384
  -9341227.40143  -7232308.89242  24187127.1604   24187130.1054   24187127.3584
      2660.6164       2073.2154
  -8993554.80743  -6938190.74842  23870760.5274   23870762.0014   23870759.9054
     -3676.1964      -2864.5894
 -16550561.14443 -12839819.08842  22073651.2124   22073654.0434   22073651.1664
     -1404.6454      -1094.5424
  -9593695.94943  -7428501.55142  23888950.3694   23888953.7074   23888949.6874
      3149.0084       2453.7704
 -12332715.45543  -9604244.60142  22078064.1824   22078066.7494   22078064.0354
      1254.4834        977.5034
 05  9 20  1 28 30.0000000  0 10G28G11G 1G25G20G 7G19G14G24G31
  -6606181.60243  -5137265.59242  24541597.9334   24541599.7194   24541596.7234
     -2231.1394      -1738.5544
 -27853364.37343 -21652360.64942  20440570.0184   20440571.7074   20440569.7294
      -254.1334       -198.0254
 -22761541.79243 -17686952.77942  21476187.4904   21476190.3014   21476186.7964
       991.2994        772.4394
  -1915663.33943  -1445744.77042  25166443.9304   25166449.0054   25166444.7724
      2979.9734       2322.0634
 -19320789.25443 -15004898.30442  22098559.8884   22098562.3984   22098559.5624
      2793.9574       2177.1084
  -9420901.78643  -7294392.81942  24171965.8604   24171970.6224   24171965.4854
      2650.2474       2065.1224
  -8883203.67643  -6852202.87142  23891758.1244   23891761.6304   23891757.4504
     -3681.0744      -2868.3704
 -16508155.14143 -12806775.44942  22081721.1994   22081723.4704   22081720.7634
     -1423.0674      -1108.8784
  -9688123.77843  -7502081.66642  23870982.2044   23870985.4174   23870980.1654
      3145.2844       2450.8564
 -12370061.98243  -9633345.79542  22070958.2504   22070959.5924   22070957.5024
      1234.5624        962.0084
 05  9 20  1 29  0.0000000  0 10G28G11G 1G25G20G 7G19G14G24G31
  -6539059.78143  -5084962.91242  24554368.8884   24554372.0514   24554368.2664
     -2244.0554      -1748.6224
 -27845498.68643 -21646231.54342  20442067.2114   20442068.5994   20442066.7294
      -270.7284       -210.9644
 -22790989.94343 -17709899.37542  21470583.8844   21470586.3634   21470583.3834
       971.3684        756.9084
  -2005010.18143  -1515365.65242  25149442.8984   25149446.7934   25149443.7754
      2976.6374       2319.4634
 -19404457.72543 -15070094.50642  22082638.9594   22082641.2484   22082638.0464
      2783.4594       2168.9204
  -9500248.88343  -7356221.71042  24156867.8014   24156870.7984   24156866.6644
      2639.1274       2056.4594
  -8772689.48343  -6766087.93342  23912789.8794   23912791.5144   23912789.7994
     -3687.0304      -2873.0164
 -16465185.25243 -12773292.41442  22089898.3334   22089900.5384   22089897.6144
     -1442.0684      -1123.7064
  -9782424.56443  -7575562.80042  23853037.7984   23853038.8664   23853037.1414
      3140.8564       2447.4234
 -12406798.23243  -9661971.44642  22063966.6314   22063969.6204   22063965.9264
      1213.8894        945.8744
 05  9 20  1 29 30.0000000  0 10G28G11G 1G25G20G 7G19G14G24G31
  -6471575.78943  -5032378.02842  24567212.2814   24567213.7644   24567210.8554
     -2255.1234      -1757.2264
 -27837143.09143 -21639720.68942  20443657.1444   20443658.5804   20443656.6434
      -286.4814       -223.2244
 -22819849.53044 -17732387.35142  21465092.1654   21465094.8904   21465091.6884
       952.4244        742.1614
  -2094233.48943  -1584890.27842  25132462.7604   25132468.5264   25132462.1094
      2972.1804       2315.9864
 -19487819.23443 -15135051.50742  22066775.7694   22066778.2704   22066775.2394
      2773.8484       2161.4454
  -9579266.92143  -7417794.21342  24141830.7594   24141834.3054   24141830.1304
      2628.5574       2048.2454
  -8662015.15743  -6679848.23642  23933850.3324   23933852.7814   23933849.8534
     -3691.3914      -2876.3994
 -16421653.29843 -12739371.41142  22098182.3674   22098184.3084   22098182.0184
     -1460.2014      -1137.8064
  -9876597.54243  -7648944.34542  23835116.1294   23835117.9304   23835115.8984
      3136.9424       2444.3754
 -12442923.45943  -9690120.97642  22057092.7224   22057094.9764   22057092.3524
      1194.2964        930.6214
 05  9 20  1 30  0.0000000  0 10G28G11G 1G25G20G 7G19G14G24G31
  -6403732.50543  -4979513.14442  24580122.1284   24580123.1264   24580122.0584
     -2267.3994      -1766.8084
 -27828297.20043 -21632827.78942  20445340.3544   20445342.0104   20445340.0014
      -302.8304       -235.9724
 -22848119.56043 -17754415.93442  21459712.6354   21459714.9784   21459712.0134
       932.7154        726.7854
  -2183330.74243  -1654316.67042  25115510.8284   25115513.1484   25115509.4304
      2968.0254       2312.7464
 -19570872.30043 -15199768.15742  22050970.5634   22050974.2294   22050970.0544
      2763.5854       2153.4364
  -9657953.53543  -7479108.46442  24126857.3604   24126859.9404   24126856.5724
      2617.2464       2039.3924
  -8551182.81543  -6593485.37442  23954941.5944   23954943.9384   23954940.4254
     -3696.6054      -2880.4854
 -16377561.09143 -12705013.83942  22106572.8134   22106574.1854   22106572.1664
     -1478.7964      -1152.3024
  -9970641.25143  -7722225.16742  23817220.3974   23817223.0134   23817218.7794
      3133.0104       2441.2984
 -12478436.26643  -9717793.28042  22050333.9964   22050337.2654   22050333.6734
      1173.7534        914.6114
 05  9 20  1 30 30.0000000  0 10G28G11G 1G25G20G 7G19G14G24G31
  -6335532.26343  -4926370.13242  24593101.1994   24593102.9334   24593100.5334
     -2279.1074      -1775.9244
 -27818960.38643 -21625552.35242  20447117.0744   20447118.4924   20447116.7084
      -319.2614       -248.7724
 -22875798.96143 -17775984.28542  21454444.9474   21454447.9704   21454444.3304
       912.9654        711.4054
  -2272298.50343  -1723642.16042  25098581.1794   25098583.5314   25098579.5654
      2963.7224       2309.3894
 -19653615.34943 -15264243.22942  22035225.2424   22035228.1374   22035224.7314
      2753.0824       2145.2734
  -9736306.35943  -7540162.61942  24111946.3884   24111950.4334   24111946.8754
      2606.5024       2031.0414
  -8440194.97143  -6507001.38042  23976061.2694   23976063.4334   23976060.0124
     -3701.9714      -2884.6384
 -16332909.96143 -12670220.74742  22115069.3524   22115071.2484   22115068.8864
     -1497.4404      -1166.8454
 -10064554.02643  -7795403.93842  23799348.2234   23799352.6004   23799348.6324
      3128.5674       2437.8404
 -12513335.01743  -9744987.11642  22043693.7784   22043696.4064   22043693.1804
      1153.1984        898.6064
 05  9 20  1 31  0.0000000  0 10G28G11G 1G25G20G 7G19G14G24G31
  -6266978.10643  -4872951.35442  24606145.1114   24606147.6044   24606144.3264
     -2291.1044      -1785.2684
 -27809133.16543 -21617894.78042  20448987.3114   20448988.6114   20448986.6774
      -335.9034       -261.7384
 -22902887.39143 -17797092.13942  21449290.4464   21449293.4314   21449289.7804
       892.9964        695.8444
  -2361134.12943  -1792864.68442  25081673.1564   25081678.2404   25081674.3844
      2958.5414       2305.3564
 -19736047.40843 -15328475.98842  22019538.9594   22019541.5004   22019538.3404
      2742.3014       2136.8594
  -9814323.27943  -7600955.01242  24097100.1524   24097104.6234   24097099.3974
      2594.9174       2021.9944
  -8329054.12343  -6420398.14242  23997210.0404   23997213.1454   23997209.8204
     -3707.3714      -2888.8734
 -16287701.76543 -12634993.57642  22123672.4514   22123673.8674   22123672.0654
     -1516.3854      -1181.5884
 -10158334.61743  -7868479.70842  23781503.4504   23781507.5124   23781503.0544
      3123.6934       2434.0494
 -12547618.78043  -9771701.74042  22037169.9524   22037172.3854   22037169.7174
      1132.4644        882.4534
 05  9 20  1 31 30.0000000  0 10G28G11G 1G25G20G 7G19G14G24G31
  -6198072.53443  -4819258.71242  24619256.8674   24619260.4754   24619256.4304
     -2302.7824      -1794.3764
 -27798815.30243 -21609854.89042  20450950.3534   20450952.1964   20450950.1064
      -352.2974       -274.5224
 -22929384.01943 -17817738.84642  21444247.9354   21444251.1484   21444247.4574
       873.0744        680.3194
  -2449834.87143  -1861982.10542  25064794.7064   25064800.2474   25064794.9474
      2954.3394       2302.0744
 -19818167.29343 -15392465.48942  22003912.3624   22003915.4544   22003911.9134
      2731.9624       2128.7934
  -9892002.05443  -7661483.93142  24082318.8934   24082322.7814   24082318.1354
      2583.2674       2012.9304
  -8217762.88243  -6333677.70642  24018389.3994   24018390.1034   24018388.1154
     -3712.2344      -2892.6534
 -16241938.49043 -12599333.87342  22132381.3244   22132382.6014   22132380.5614
     -1534.9074      -1196.0274
 -10251981.70643  -7941451.44842  23763683.1064   23763686.8114   23763682.5584
      3119.0314       2430.4204
 -12581286.18543  -9797936.08442  22030763.5784   22030765.4704   22030762.3384
      1111.6854        866.2534
 05  9 20  1 32  0.0000000  0 10G28G11G 1G25G20G 7G19G14G24G31
  -6128818.53743  -4765294.57742  24632435.3134   24632437.6844   24632435.2434
     -2314.0784      -1803.1734
 -27788006.95643 -21601432.80542  20453007.8254   20453008.8534   20453007.0594
      -368.4574       -287.1114
 -22955288.10443 -17837923.83442  21439318.4814   21439321.9304   21439317.9614
       853.5454        665.0974
  -2538397.93143  -1930992.23042  25047943.4494   25047946.1464   25047943.3494
      2949.8234       2298.5644
 -19899973.80043 -15456210.79742  21988345.6084   21988347.9084   21988344.3074
      2721.5694       2120.6964
  -9969340.49043  -7721747.65242  24067602.3664   24067605.5474   24067601.9704
      2572.4534       2004.5124
  -8106323.65543  -6246841.99242  24039595.9974   24039596.1114   24039594.3134
     -3717.1504      -2896.4764
 -16195622.02243 -12563243.12242  22141194.1284   22141196.0904   22141194.0684
     -1553.0824      -1210.2104
 -10345493.95443  -8014318.12742  23745888.7574   23745890.8514   23745887.4954
      3114.6624       2427.0214
 -12614335.87943  -9823689.09342  22024472.8174   22024476.6344   22024472.9114
      1091.3474        850.3974
 05  9 20  1 32 30.0000000  0 10G28G11G 1G25G20G 7G19G14G24G31
  -6059218.84943  -4711061.10142  24645680.3874   24645683.7514   24645681.1104
     -2325.9944      -1812.4594
 -27776707.57743 -21592628.09942  20455157.7084   20455159.1874   20455157.0894
      -385.0894       -300.0714
 -22980599.02143 -17857646.61042  21434502.3964   21434505.2044   21434501.4744
       833.4384        649.4294
  -2626820.28043  -1999892.74442  25031116.2404   25031117.3934   25031116.5894
      2944.7364       2294.6024
 -19981465.51043 -15519710.80642  21972837.9734   21972840.2764   21972836.9734
      2710.7334       2112.2494
 -10046336.39843  -7781744.46442  24052949.8244   24052953.5954   24052949.2164
      2560.5184       1995.2114
  -7994739.03143  -6159892.92942  24060830.0794   24060829.8024   24060828.2964
     -3722.2544      -2900.4584
 -16148754.11143 -12526722.66542  22150113.0724   22150115.3454   22150112.3944
     -1571.8504      -1224.8354
 -10438869.67743  -8087078.45042  23728120.1664   23728123.7804   23728119.8134
      3109.7804       2423.2164
 -12646766.54343  -9848959.73742  22018303.0874   22018305.0954   22018302.0274
      1070.3374        834.0184
 05  9 20  1 33  0.0000000  0 10G28G11G 1G25G20G 7G19G14G24G31
  -5989275.92343  -4656560.12442  24658989.6414   24658993.3964   24658989.0404
     -2336.8954      -1820.9614
 -27764917.57343 -21583441.08442  20457400.7204   20457402.5384   20457400.6514
      -401.1344       -312.5804
 -23005315.97043 -17876906.55642  21429798.5564   21429801.8524   21429797.9744
       814.0214        634.2924
  -2715099.16143  -2068681.44442  25014317.2164   25014321.8584   25014316.6964
      2940.7624       2291.5034
 -20062640.72343 -15582964.20642  21957391.6444   21957393.6664   21957390.1634
      2700.6964       2104.4344
 -10122987.56843  -7841472.62942  24038363.8704   24038367.9944   24038363.2874
      2549.4424       1986.5874
  -7883011.43943  -6072832.48642  24082090.3154   24082090.6824   24082088.3554
     -3726.5684      -2903.8194
 -16101336.19343 -12489773.62842  22159137.1924   22159138.4824   22159136.0084
     -1589.6224      -1238.6784
 -10532107.44843  -8159731.25142  23710377.1464   23710380.1774   23710376.3014
      3105.8804       2420.1504
 -12678576.85743  -9873746.98742  22012249.2784   22012251.3644   22012248.6354
      1050.0554        818.2274
 05  9 20  1 33 30.0000000  0 10G28G11G 1G25G20G 7G19G14G24G31
  -5918992.81043  -4601794.10542  24672365.3504   24672367.3504   24672365.4554
     -2348.4094      -1829.9454
 -27752636.42743 -21573871.36242  20459738.2624   20459739.6714   20459737.7594
      -417.6764       -325.4694
 -23029438.28244 -17895703.15442  21425208.6314   21425211.6214   21425208.0654
       793.9904        618.6834
  -2803231.71843  -2137356.12442  24997546.6924   24997550.1724   24997545.5634
      2935.3004       2287.2354
 -20143498.88243 -15645970.54642  21942003.7854   21942006.1114   21942002.6954
      2689.7424       2095.9074
 -10199291.59243  -7900930.31142  24023843.4274   24023847.1544   24023843.0764
      2537.6264       1977.3754
  -7771143.29443  -5985662.54542  24103378.5184   24103380.3594   24103377.0124
     -3731.2224      -2907.4374
 -16053370.29643 -12452397.60542  22168263.8774   22168265.6494   22168263.2754
     -1608.1434      -1253.1074
 -10625205.80743  -8232275.40542  23692661.7444   23692665.2034   23692660.8874
      3100.7094       2416.1204
 -12709765.73443  -9898050.00842  22006313.6064   22006316.9704   22006313.1864
      1029.0344        801.8494
 05  9 20  1 34  0.0000000  0 10G28G11G 1G25G20G 7G19G14G24G31
  -5848372.47743  -4546765.29142  24685804.1644   24685805.6424   24685803.5094
     -2359.3794      -1838.4774
 -27739864.62343 -21563919.30842  20462168.3354   20462169.9434   20462168.0014
      -433.8034       -338.0254
 -23052965.37843 -17914035.94042  21420731.2184   21420734.3524   21420730.8194
       774.3974        603.4284
  -2891214.93443  -2205914.40542  24980803.7304   24980807.1444   24980803.1334
      2930.4454       2283.4684
 -20224038.52543 -15708728.68742  21926677.9054   21926679.8564   21926677.0184
      2679.4514       2087.8814
 -10275246.57643  -7960116.01242  24009389.4794   24009393.6774   24009388.5664
      2525.9084       1968.2484
  -7659137.16643  -5898385.05942  24124693.0794   24124693.6694   24124691.7464
     -3735.7504      -2910.9684
 -16004858.27143 -12414596.02142  22177496.1994   22177497.7774   22177495.2704
     -1625.9674      -1266.9814
 -10718163.45543  -8304709.92742  23674971.7404   23674975.7084   23674971.7134
      3096.4084       2412.7994
 -12740332.15143  -9921867.99142  22000498.0784   22000500.0304   22000497.2164
      1008.7114        786.0104
 05  9 20  1 34 30.0000000  0 10G28G11G 1G25G20G 7G19G14G24G31
  -5777417.42143  -4491475.62442  24699305.6044   24699308.2514   24699304.3304
     -2371.0634      -1847.5824
 -27726601.94143 -21553584.75642  20464692.9614   20464694.0144   20464692.0624
      -450.1924       -350.8004
 -23075896.77343 -17931904.55142  21416367.6864   21416370.7364   21416367.1784
       754.4244        587.8714
  -2979046.01343  -2274354.15742  24964089.6134   24964094.2444   24964089.0924
      2924.8444       2279.0974
 -20304258.17343 -15771237.49042  21911412.4814   21911414.5414   21911411.3674
      2668.6924       2079.5044
 -10350850.16843  -8019027.91042  23995003.2674   23995006.7914   23995002.5424
      2513.9304       1958.9144
  -7546995.65743  -5811002.07342  24146031.4254   24146032.8754   24146031.0554
     -3740.1164      -2914.3694
 -15955802.04543 -12376370.39242  22186830.8044   22186832.8644   22186830.4474
     -1644.2474      -1281.2264
 -10810979.12643  -8377033.82442  23657309.7674   23657312.8464   23657308.7804
      3091.5254       2409.0114
 -12770274.97043  -9945200.05742  21994799.4694   21994802.1274   21994798.6034
       987.7874        769.6964
 05  9 20  1 35  0.0000000  0 10G28G11G 1G25G20G 7G19G14G24G31
  -5706130.37443  -4435927.28542  24712871.0384   24712873.1424   24712870.7324
     -2381.8934      -1856.0134
 -27712848.22243 -21542867.57642  20467309.0844   20467311.0534   20467308.8534
      -466.5514       -363.5494
 -23098231.79043 -17949308.44842  21412117.0534   21412120.3964   21412116.8324
       734.6124        572.4224
  -3066722.05043  -2342673.11542  24947407.0014   24947409.3194   24947406.7044
      2919.8404       2275.1964
 -20384156.67743 -15833496.04342  21896207.9174   21896210.1634   21896207.0804
      2657.9024       2071.0914
 -10426100.02243  -8077664.17442  23980684.1954   23980687.0244   23980683.4004
      2502.3134       1949.8524
  -7434720.81543  -5723515.21742  24167396.4874   24167399.3334   24167395.8974
     -3744.7694      -2918.0034
 -15906203.36343 -12337722.06342  22196269.0824   22196271.5484   22196269.0014
     -1662.3064      -1295.3104
 -10903651.25843  -8449245.86342  23639674.4624   23639678.7754   23639672.6324
      3086.7004       2405.2594
 -12799592.88843  -9968045.18342  21989221.2774   21989223.2254   21989220.3884
       966.8514        753.3914
 05  9 20  1 35 30.0000000  0 10G28G11G 1G25G20G 7G19G14G24G31
  -5634514.36743  -4380122.65942  24726500.0754   24726500.7704   24726499.0074
     -2392.2914      -1864.1174
 -27698603.18043 -21531767.54742  20470020.1974   20470021.7554   20470019.8344
      -482.9734       -376.3354
 -23119969.97743 -17966247.28242  21407980.9304   21407983.7794   21407980.2714
       714.6924        556.9034
  -3154240.27743  -2410869.08842  24930751.9354   24930756.2454   24930752.5034
      2914.5444       2271.0764
 -20463733.35943 -15895503.82742  21881065.4994   21881067.6854   21881064.5884
      2647.1764       2062.7314
 -10500994.23643  -8136023.30942  23966430.4024   23966434.8514   23966430.6914
      2490.5054       1940.6704
  -7322315.59743  -5635926.75342  24188787.1824   24188788.4514   24188785.9134
     -3748.7334      -2921.0904
 -15856064.26343 -12298652.62742  22205810.6354   22205812.5564   22205809.4764
     -1680.2274      -1309.2464
 -10996178.31543  -8521344.86042  23622066.3964   23622070.9824   23622065.9464
      3081.7354       2401.3484
 -12828284.98043  -9990402.66742  21983760.2174   21983762.9534   21983760.3254
       946.0594        737.1894
 05  9 20  1 36  0.0000000  0 10G28G11G 1G25G20G 7G19G14G24G31
  -5562572.09243  -4324063.80042  24740187.7114   24740193.5354   24740188.2544
     -2403.5184      -1872.8674
 -27683867.75543 -21520285.39442  20472824.2664   20472825.8614   20472823.6974
      -499.3794       -389.1264
 -23141110.75543 -17982720.60242  21403957.8834   21403960.7564   21403957.4674
       694.7114        541.3324
  -3241597.84743  -2478939.88142  24914128.4724   24914130.7144   24914127.9914
      2909.4344       2267.0804
 -20542986.46443 -15957259.47942  21865984.3564   21865985.9884   21865983.1464
      2636.4054       2054.3454
 -10575530.44443  -8194103.47442  23952248.3334   23952250.7564   23952247.0604
      2478.6714       1931.4424
  -7209782.21543  -5548238.42442  24210202.2574   24210202.2584   24210200.9204
     -3753.2914      -2924.6294
 -15805386.71643 -12259163.62542  22215453.3664   22215454.7884   22215453.4784
     -1698.1584      -1323.2294
 -11088559.02243  -8593329.81942  23604487.6274   23604491.6014   23604487.3314
      3076.9514       2397.6144
 -12856350.14643 -10012271.62542  21978420.1614   21978422.6164   21978419.4944
       925.0304        720.7954
 05  9 20  1 36 30.0000000  0 10G28G11G 1G25G20G 7G19G14G24G31
  -5490306.47043  -4267752.99342  24753942.0854   24753942.2994   24753941.1614
     -2413.9824      -1881.0344
 -27668641.73343 -21508420.97142  20475721.7714   20475723.3054   20475721.3594
      -515.4694       -401.6634
 -23161653.77843 -17998728.14442  21400048.6814   21400051.2404   21400048.0834
       675.0574        526.0174
  -3328792.00143  -2546883.32842  24897533.9634   24897538.2304   24897533.8724
      2904.0304       2262.8724
 -20621914.90143 -16018762.13342  21850964.2554   21850966.5374   21850963.4164
      2625.8024       2046.0914
 -10649706.63343  -8251903.11242  23938133.6244   23938136.4974   23938131.2344
      2466.9454       1922.2894
  -7097123.44443  -5460452.38042  24231640.1624   24231641.3064   24231639.1934
     -3757.1834      -2927.6784
 -15754172.67743 -12219256.57942  22225200.0134   22225201.7604   22225199.1644
     -1715.7034      -1336.9134
 -11180792.00943  -8665199.67842  23586936.7314   23586940.5804   23586935.4694
      3072.2684       2394.0054
 -12883787.21743 -10033651.15642  21973198.1314   21973201.3414   21973198.4044
       904.3434        704.6924
 05  9 20  1 37  0.0000000  0 10G28G11G 1G25G20G 7G19G14G24G31
  -5417720.18843  -4211192.30642  24767754.2784   24767756.7794   24767753.6394
     -2424.9064      -1889.5354
 -27652924.84843 -21496174.05342  20478712.9684   20478714.0594   20478712.3074
      -532.1264       -414.6604
 -23181598.46743 -18014269.44442  21396252.8734   21396256.1974   21396252.3534
       654.8464        510.2544
  -3415819.74543  -2614697.14542  24880974.5934   24880978.0614   24880974.2994
      2897.8714       2258.0774
 -20700517.46243 -16080010.87142  21836006.8784   21836009.2284   21836006.0784
      2614.6224       2037.3574
 -10723520.49743  -8309420.40842  23924086.2024   23924088.6724   23924085.3684
      2454.5504       1912.6364
  -6984341.66243  -5372570.49342  24253101.0984   24253102.2114   24253101.0964
     -3761.5074      -2931.0514
 -15702423.73243 -12178932.72242  22235046.9164   22235049.3784   22235046.3244
     -1733.9124      -1351.1034
 -11272875.54443  -8736953.09042  23569414.7294   23569417.2204   23569413.1534
      3066.8734       2389.7534
 -12910595.16343 -10054540.46342  21968097.3414   21968100.1884   21968096.9454
       883.0554        688.0914
 05  9 20  1 37 30.0000000  0 10G28G11G 1G25G20G 7G19G14G24G31
  -5344816.19643  -4154384.05642  24781627.5034   24781629.3904   24781627.8384
     -2435.0084      -1897.4024
 -27636717.10143 -21483544.64242  20481796.5214   20481798.3544   20481796.3234
      -548.3594       -427.2894
 -23200944.40943 -18029344.19642  21392571.2694   21392574.7114   21392570.9714
       634.9554        494.7744
  -3502678.45443  -2682379.21042  24864444.4644   24864450.4934   24864446.4984
      2892.6484       2254.0044
 -20778792.84643 -16141004.65742  21821111.5034   21821113.9314   21821110.4804
      2603.8284       2028.9524
 -10796970.00943  -8366653.80742  23910109.9544   23910113.5904   23910109.6134
      2442.6414       1903.3654
  -6871439.22943  -5284594.58142  24274585.3634   24274588.2154   24274584.7564
     -3765.3264      -2934.0254
 -15650141.94143 -12138193.66442  22244996.2214   22244998.0884   22244995.2354
     -1751.5044      -1364.7944
 -11364808.26543  -8808588.95942  23551918.6644   23551922.4804   23551918.4344
      3062.0344       2386.0364
 -12936772.99843 -10074938.77742  21963115.7114   21963118.3944   21963115.3394
       862.2314        671.8804
 05  9 20  1 38  0.0000000  0 10G28G11G 1G25G20G 7G19G14G24G31
  -5271597.06443  -4097330.19242  24795560.8034   24795563.3674   24795560.0174
     -2446.6914      -1906.5254
 -27620018.82643 -21470533.00442  20484974.6334   20484975.8454   20484974.0194
      -565.5854       -440.7314
 -23219691.11343 -18043952.00742  21389004.5624   21389007.1334   21389003.7324
       614.0604        478.4724
  -3589364.82343  -2749926.97342  24847949.3764   24847953.8054   24847950.1054
      2886.1064       2248.9134
 -20856739.97643 -16201742.66442  21806278.8194   21806281.3054   21806277.7924
      2592.0244       2019.7464
 -10870052.80443  -8423601.43642  23896202.8144   23896205.7274   23896201.6584
      2429.1804       1892.8304
  -6758418.55443  -5196526.55942  24296093.2984   24296094.7554   24296091.5574
     -3769.8894      -2937.5794
 -15597329.32843 -12097040.97042  22255045.8964   22255047.8334   22255045.4894
     -1770.0514      -1379.2744
 -11456588.54843  -8880106.03842  23534454.5864   23534457.2484   23534453.0124
      3055.9124       2381.2324
 -12962319.88843 -10094845.44542  21958254.5524   21958256.9024   21958254.0214
       840.1464        654.6504
 05  9 20  1 38 30.0000000  0 10G28G11G 1G25G20G 7G19G14G24G31
  -5198065.67643  -4040033.01042  24809552.2174   24809555.9614   24809552.1104
     -2456.3964      -1914.0684
 -27602829.97843 -21457139.09842  20488244.9034   20488247.0174   20488244.6724
      -581.3764       -453.0184
 -23237838.24943 -18058092.62542  21385551.0904   21385553.8644   21385550.5494
       594.6674        463.3854
  -3675875.79243  -2817338.05942  24831486.9624   24831489.2894   24831485.8764
      2880.3654       2244.4424
 -20934357.53943 -16262223.86142  21791508.6214   21791511.1584   21791507.5024
      2581.4304       2011.5004
 -10942766.80543  -8480261.69742  23882365.0304   23882369.2944   23882364.8734
      2417.2204       1883.5504
  -6645282.18943  -5108368.36342  24317624.0384   24317623.8234   24317621.7304
     -3773.3874      -2940.3054
 -15543988.12243 -12055476.39442  22265195.9584   22265198.0084   22265195.6994
     -1787.0604      -1392.5184
 -11548214.91043  -8951503.20642  23517018.3854   23517021.5594   23517017.5094
      3051.4094       2377.7094
 -12987234.92943 -10114259.76042  21953512.8194   21953516.0194   21953512.8824
       819.6784        638.7094
 05  9 20  1 39  0.0000000  0 10G28G11G 1G25G20G 7G19G14G24G31
  -5124225.25043  -3982495.00442  24823603.0604   24823607.1924   24823603.7064
     -2465.5254      -1921.1944
 -27585150.75043 -21443363.08242  20491609.6604   20491611.1214   20491609.3214
      -596.8734       -465.0884
 -23255385.42043 -18071765.73242  21382211.4994   21382215.2674   21382210.9954
       575.4594        448.4164
  -3762208.63543  -2884610.37642  24815058.4204   24815061.0694   24815058.3404
      2875.4674       2240.6254
 -21011644.32343 -16322447.31742  21776801.2874   21776803.6184   21776800.5904
      2571.2604       2003.5854
 -11015109.87543  -8536632.89742  23868598.9244   23868602.4884   23868597.8484
      2405.7914       1874.6654
  -6532032.43543  -5020121.83042  24339172.6684   24339175.6134   24339172.2944
     -3776.0804      -2942.3974
 -15490120.04343 -12013501.26442  22275447.0114   22275448.7984   22275446.7014
     -1803.7304      -1405.5054
 -11639686.20243  -9022779.54642  23499611.9004   23499615.2374   23499611.7944
      3046.9804       2374.2764
 -13011517.12243 -10133180.94242  21948892.7274   21948895.5384   21948892.0284
       799.4474        622.9434
 05  9 20  1 39 30.0000000  0 10G28G11G 1G25G20G 7G19G14G24G31
  -5050078.19643  -3924718.12542  24837712.8264   24837716.6984   24837712.6444
     -2476.2694      -1929.5584
 -27566981.11943 -21429204.93342  20495067.2594   20495068.6714   20495066.8814
      -613.3414       -477.9324
 -23272332.19943 -18084971.00742  21378987.1874   21378989.9604   21378986.6184
       555.3294        432.7274
  -3848360.75943  -2951741.85742  24798663.0104   24798667.3464   24798663.5344
      2869.3144       2235.8264
 -21088599.25043 -16382412.17642  21762157.2124   21762159.7064   21762156.5334
      2560.0154       1994.8124
 -11087079.83643  -8592713.40842  23854904.5604   23854906.2844   23854902.1584
      2392.8204       1864.5364
  -6418672.24743  -4931789.22342  24360744.8014   24360747.3264   24360744.3944
     -3780.0404      -2945.4884
 -15435727.21543 -11971117.23742  22285797.6824   22285799.6964   22285797.3494
     -1821.3384      -1419.2154
 -11731000.57043  -9093933.60342  23482234.7794   23482238.4744   23482235.8764
      3041.5394       2370.0304
 -13035165.65243 -10151608.36742  21944393.2654   21944394.8894   21944392.1374
       778.1774        606.3684
 05  9 20  1 40  0.0000000  0 10G28G11G 1G25G20G 7G19G14G24G31
  -4975627.67643  -3866704.78842  24851881.6704   24851883.0474   24851880.9794
     -2486.1954      -1937.2934
 -27548321.28443 -21414664.80542  20498618.4874   20498619.4174   20498617.4934
      -629.6974       -490.6774
 -23288678.31144 -18097708.22642  21375876.6634   21375879.7354   21375876.1464
       535.2824        417.0934
  -3934329.65943  -3018730.57442  24782304.3974   24782308.4574   24782304.4564
      2862.9104       2230.8464
 -21165221.18443 -16442117.56642  21747576.6774   21747579.2184   21747575.9544
      2549.0054       1986.2314
 -11158674.64843  -8648501.56542  23841279.2844   23841282.5614   23841277.8474
      2380.5654       1854.9714
  -6305204.12343  -4843372.51642  24382337.0154   24382339.8624   24382336.6564
     -3783.5824      -2948.2454
 -15380811.93743 -11928326.10142  22296247.5414   22296250.1074   22296246.6894
     -1838.7084      -1432.7734
 -11822156.57843  -9164964.24742  23464889.5514   23464891.7464   23464888.2214
      3036.3454       2365.9614
 -13058179.56143 -10169541.28142  21940013.5394   21940015.8404   21940012.8004
       756.9964        589.8754
 05  9 20  1 40 30.0000000  0 10G28G11G 1G25G20G 7G19G14G24G31
  -4900876.92643  -3808457.46942  24866105.7804   24866108.0804   24866103.3294
     -2497.1354      -1945.8274
 -27529171.49143 -21399742.89342  20502261.9684   20502263.6744   20502261.5044
      -646.8534       -504.0444
 -23304423.57444 -18109977.25742  21372880.3654   21372883.5964   21372879.8454
       514.5694        400.9714
  -4020112.01243  -3085573.93242  24765982.0554   24765984.7024   24765981.2004
      2855.9194       2225.3894
 -21241508.76043 -16501562.41042  21733059.9044   21733061.3954   21733058.6244
      2537.0344       1976.9134
 -11229892.22243  -8703995.78342  23827727.1614   23827730.0464   23827726.5404
      2367.5624       1844.8524
  -6191630.48843  -4754873.61042  24403950.1284   24403951.2684   24403948.9324
     -3787.8504      -2951.5644
 -15325375.74543 -11885129.06842  22306796.7534   22306798.8644   22306796.4484
     -1856.7794      -1446.8234
 -11913153.04343  -9235870.56142  23447571.0904   23447576.6174   23447572.5704
      3030.1934       2361.1954
 -13080558.00443 -10186979.03242  21935754.6684   21935757.3344   21935754.3444
       734.9764        572.7024
 05  9 20  1 41  0.0000000  0 10G28G11G 1G25G20G 7G19G14G24G31
  -4825828.32543  -3749978.13442  24880389.1924   24880389.7394   24880387.4904
     -2505.4854      -1952.3244
 -27509531.76143 -21384439.21042  20505998.9284   20506000.9574   20505998.9124
      -662.3084       -516.0774
 -23319567.38644 -18121777.61942  21369998.6524   21370001.7214   21369998.1604
       495.2414        385.9014
  -4105704.85943  -3152269.64042  24749693.6004   24749696.8864   24749693.3044
      2850.5174       2221.1784
 -21317460.94343 -16560745.90642  21718605.9424   21718608.3964   21718605.5214
      2526.6124       1968.7904
 -11300730.18443  -8759194.18842  23814247.5524   23814250.4464   23814245.9784
      2355.3484       1835.3254
  -6077953.44043  -4666294.12942  24425582.0414   24425584.3124   24425580.8674
     -3790.6674      -2953.7684
 -15269420.72143 -11841527.75542  22317445.0844   22317447.1234   22317444.5154
     -1873.2704      -1459.6854
 -12003988.44643  -9306651.39342  23430286.9314   23430290.2554   23430286.7074
      3025.5304       2357.5764
 -13102300.02043 -10203920.85842  21931617.1844   21931619.0514   21931616.5444
       714.6214        556.8624
 05  9 20  1 41 30.0000000  0 10G28G11G 1G25G20G 7G19G14G24G31
  -4750484.73843  -3691268.86642  24894725.8254   24894727.7514   24894723.8834
     -2516.5424      -1960.9334
 -27489402.17743 -21368753.82342  20509829.8754   20509831.5814   20509829.5294
      -678.9394       -529.0364
 -23334109.59044 -18133109.19942  21367231.4334   21367234.3764   21367230.8774
       474.8954        370.0574
  -4191105.47543  -3218815.55342  24733441.6244   24733446.0724   24733441.1874
      2843.6184       2215.8054
 -21393076.78643 -16619667.32842  21704216.9064   21704219.2734   21704216.0884
      2515.1254       1959.8374
 -11371186.69943  -8814095.36542  23800839.9054   23800842.8384   23800838.1964
      2342.6864       1825.4994
  -5964175.47843  -4577635.98242  24447231.8734   24447234.5544   24447231.7834
     -3794.2594      -2956.5644
 -15212949.18143 -11797523.94842  22328191.3124   22328192.6854   22328190.2564
     -1890.7824      -1473.3214
 -12094661.11543  -9377305.42042  23413032.1884   23413036.6494   23413031.8364
      3019.9834       2353.2524
 -13123404.94043 -10220366.25442  21927601.3764   21927603.2704   21927601.0444
       693.0754        540.0504
 05  9 20  1 42  0.0000000  0 10G28G11G 1G25G20G 7G19G14G24G31
  -4674849.26043  -3632332.20142  24909118.9234   24909121.5044   24909118.7654
     -2526.3914      -1968.6204
 -27468783.07643 -21352686.99642  20513753.9734   20513755.1614   20513753.3154
      -695.8584       -542.2464
 -23348049.90544 -18143971.77142  21364578.5074   21364581.5254   21364577.6404
       454.2584        353.9534
  -4276310.90643  -3285209.33042  24717228.7694   24717231.9384   24717229.0854
      2836.4374       2210.1984
 -21468354.67743 -16678325.41642  21689891.9674   21689894.4104   21689891.2184
      2503.2864       1950.5954
 -11441259.42443  -8868697.49842  23787505.5374   23787507.8844   23787504.1894
      2328.9164       1814.7374
  -5850299.39443  -4488901.41242  24468902.6204   24468904.2244   24468901.2004
     -3798.0914      -2959.5574
 -15155962.91743 -11753119.06342  22339035.3384   22339036.6814   22339034.1924
     -1908.4894      -1487.1574
 -12185169.39043  -9447831.35142  23395809.5614   23395814.3174   23395810.2034
      3013.8194       2348.4084
 -13143871.87043 -10236314.51042  21923706.3604   21923708.3654   21923705.8164
       671.1814        522.9764
 05  9 20  1 42 30.0000000  0 10G28G11G 1G25G20G 7G19G14G24G31
  -4598924.56943  -3573170.12642  24923566.6074   24923567.8244   24923566.6904
     -2535.8694      -1976.0004
 -27447674.84043 -21336239.02842  20517770.3124   20517771.6754   20517769.9804
      -711.8484       -554.6794
 -23361388.42343 -18154365.41542  21362040.2064   21362043.1614   21362039.6754
       434.4064        338.5004
  -4361318.46643  -3351448.94542  24701053.0104   24701055.5124   24701051.9574
      2830.2394       2205.3764
 -21543293.62843 -16736719.38842  21675631.2764   21675633.7404   21675630.8254
      2492.1774       1941.9594
 -11510946.54143  -8922999.14842  23774244.9214   23774247.2454   23774244.7554
      2315.9914       1804.6594
  -5736327.23343  -4400091.96942  24490590.0754   24490592.0954   24490589.5824
     -3800.7004      -2961.5774
 -15098464.48543 -11708315.09042  22349976.5044   22349978.6364   22349976.2084
     -1925.3514      -1500.2824
 -12275512.18443  -9518228.32242  23378617.4884   23378621.8284   23378617.2504
      3008.6054       2344.3654
 -13163700.40143 -10251765.31142  21919932.8234   21919935.9084   21919932.6344
       650.0594        506.5504
 05  9 20  1 43  0.0000000  0 10G28G11G 1G25G20G 7G19G14G24G31
  -4522713.66643  -3513785.05442  24938069.3054   24938067.1244   24938067.6874
     -2545.3694      -1983.3994
 -27426077.32343 -21319409.79742  20521880.1824   20521881.8724   20521879.8604
      -727.9364       -567.2234
 -23374124.59743 -18164289.69842  21359616.0514   21359619.6224   21359615.7924
       414.7194        323.1604
  -4446125.05943  -3417531.98542  24684913.2194   24684916.8714   24684912.5634
      2823.6644       2200.2494
 -21617892.29543 -16794848.21242  21661435.7684   21661438.7804   21661435.1444
      2481.0794       1933.3124
 -11580245.72343  -8976998.50942  23761057.7104   23761060.2334   23761057.0254
      2303.5154       1794.9284
  -5622262.02043  -4311210.01542  24512297.1484   24512298.7544   24512296.1274
     -3803.6444      -2963.8794
 -15040455.71943 -11663113.44542  22361015.6914   22361017.2154   22361014.2094
     -1941.8964      -1513.1534
 -12365687.49843  -9588494.78542  23361457.3564   23361462.8264   23361457.4864
      3003.2614       2340.1974
 -13182889.54243 -10266717.88542  21916281.6304   21916284.5934   21916280.7694
       629.2314        490.3084
 05  9 20  1 43 30.0000000  0 10G28G11G 1G25G20G 7G19G14G24G31
  -4446219.64043  -3454179.32142  24952625.6854   24952629.1774   24952626.4314
     -2555.0544      -1990.9404
 -27403990.90743 -21302199.60342  20526082.9014   20526084.6074   20526082.7034
      -744.6494       -580.2524
 -23386258.42943 -18173744.62542  21357307.2434   21357310.4054   21357306.9504
       394.0224        307.0284
  -4530727.92443  -3483456.23542  24668813.4524   24668817.9784   24668812.2524
      2816.3724       2194.5834
 -21692150.11443 -16852711.43842  21647305.0854   21647307.3424   21647304.1894
      2469.1594       1924.0114
 -11649154.86043  -9030693.93142  23747943.8284   23747947.8314   23747943.4904
      2289.9714       1784.3814
  -5508106.17343  -4222257.43042  24534020.8874   24534021.1644   24534019.7994
     -3807.1524      -2966.6184
 -14981938.86043 -11617515.88942  22372150.3894   22372152.8834   22372150.7354
     -1959.3834      -1526.7894
 -12455694.04443  -9658629.75142  23344330.8464   23344333.2864   23344330.4884
      2996.9914       2335.3134
 -13201438.48043 -10281171.60742  21912751.6774   21912754.9174   21912751.2244
       607.3424        473.2484
 05  9 20  1 44  0.0000000  0 10G28G11G 1G25G20G 7G19G14G24G31
  -4369445.27143  -3394355.16742  24967234.9214   24967234.7914   24967233.4704
     -2563.6314      -1997.6384
 -27381415.72743 -21284608.56042  20530379.0524   20530380.5084   20530378.7734
      -760.4404       -592.5384
 -23397789.79844 -18182730.09742  21355113.4204   21355116.2124   21355112.7884
       374.6114        291.9154
  -4615124.27643  -3549219.57742  24652752.8904   24652756.8024   24652754.0304
      2810.0924       2189.6824
 -21766065.30643 -16910307.68542  21633239.6104   21633241.6534   21633238.8784
      2458.4364       1915.6744
 -11717672.14643  -9084084.02842  23734905.4224   23734909.5174   23734904.9994
      2277.7274       1774.8664
  -5393861.85843  -4133235.87642  24555760.1064   24555761.6184   24555759.7784
     -3809.4714      -2968.4174
 -14922915.76243 -11571523.85942  22383382.2344   22383384.4114   22383381.6584
     -1975.5384      -1539.3644
 -12545530.37243  -9728632.07242  23327235.6974   23327238.1474   23327235.0144
      2991.8914       2331.3624
 -13219346.56343 -10295125.95642  21909344.3184   21909347.0654   21909344.0224
       586.4704        456.9864
 05  9 20  1 44 30.0000000  0 10G28G11G 1G25G20G 7G19G14G24G31
  -4292393.38543  -3334314.76442  24981897.3814   24981899.4154   24981896.7884
     -2573.1644      -2005.0624
 -27358352.19443 -21266636.97842  20534767.9874   20534769.4474   20534767.6114
      -776.9044       -605.3824
 -23408718.48244 -18191245.95042  21353033.7714   21353036.6864   21353033.2114
       354.2364        276.0334
  -4699311.17343  -3614819.73942  24636734.5344   24636736.2344   24636732.5844
      2802.7074       2183.9274
 -21839636.82243 -16967636.13242  21619239.3384   21619241.5754   21619238.5594
      2446.6724       1906.4984
 -11785795.17743  -9137166.90342  23721942.2924   23721945.6844   23721941.8674
      2264.0434       1764.1884
  -5279531.62343  -4044147.42542  24577518.2474   24577519.3254   24577515.8324
     -3812.5334      -2970.8014
 -14863388.59843 -11525139.06042  22394710.0104   22394711.7324   22394709.7074
     -1992.6734      -1552.7304
 -12635194.79443  -9798500.46942  23310173.0234   23310175.2164   23310173.5974
      2985.9134       2326.6804
 -13236613.06143 -10308580.37042  21906058.3114   21906061.8674   21906057.7604
       564.9374        440.2134
 05  9 20  1 45  0.0000000  0 11G28G11G 1G25G20G 7G19G14G23G24G31
  -4215067.14943  -3274060.56542  24996610.5634   24996614.8244   24996610.3564
     -2582.6004      -2012.4124
 -27334800.55843 -21248285.06242  20539249.3614   20539251.1824   20539249.0994
      -793.5754       -618.3624
 -23419044.57543 -18199292.24842  21351068.4844   21351071.6264   21351068.0344
       333.8494        260.1414
  -4783286.30143  -3680254.84842  24620753.6954   24620757.6694   24620753.9514
      2795.2414       2178.1054
 -21912863.81343 -17024696.11242  21605305.0954   21605306.8384   21605303.9474
      2434.8474       1897.2894
 -11853522.20543  -9189941.20542  23709055.3024   23709057.3584   23709054.0524
      2250.4544       1753.6024
  -5165118.16343  -3954994.12342  24599289.4894   24599289.8384   24599287.6804
     -3815.6744      -2973.2594
 -14803359.93743 -11478363.48442  22406133.2354   22406134.8584   22406132.9624
     -2009.6194      -1565.9444
  -1660562.86043  -1237459.56942  25472598.4254   25472598.0284   25472597.2794
      3979.5004       3100.9014
 -12724686.05443  -9868233.92242  23293143.5724   23293146.1644   23293143.2394
      2979.8874       2322.0054
 -13253237.78243 -10321534.70042  21902894.2794   21902897.1704   21902894.4204
       543.0864        423.1734
 05  9 20  1 45 30.0000000  0 11G28G11G 1G25G20G 7G19G14G23G24G31
  -4137469.03243  -3213594.55342  25011378.0604   25011381.2594   25011379.3634
     -2590.7804      -2018.7984
 -27310760.98643 -21229552.93042  20543823.7424   20543825.8214   20543823.4694
      -809.1544       -630.5244
 -23428767.65744 -18206868.66742  21349218.3504   21349221.4304   21349217.8294
       314.4134        244.9744
  -4867045.92943  -3745522.08742  24604814.9444   24604817.4254   24604814.7984
      2788.8464       2173.1304
 -21985744.97843 -17081486.61842  21591435.9014   21591438.3114   21591434.9154
      2423.9924       1888.8024
 -11920850.84843  -9242405.08242  23696242.9434   23696245.4704   23696241.2814
      2237.7254       1743.6784
  -5050623.60143  -3865777.60142  24621076.1034   24621076.8424   24621074.7484
     -3817.1414      -2974.4034
 -14742831.59743 -11431198.53642  22417651.7064   22417653.2914   22417651.0594
     -2025.5324      -1578.3704
  -1779958.72443  -1330495.30342  25449877.8704   25449877.5714   25449876.1124
      3980.2924       3101.5214
 -12814002.32943  -9937830.99242  23276146.2044   23276149.1894   23276146.0644
      2974.7194       2317.9634
 -13269219.69743 -10333988.13942  21899853.3254   21899855.8844   21899853.0214
       522.3944        407.0404
 05  9 20  1 46  0.0000000  0 11G28G11G 1G25G20G 7G19G14G23G24G31
  -4059602.49443  -3152919.32842  25026193.4234   25026198.2734   25026195.7884
     -2600.3614      -2026.2524
 -27286233.87043 -21210440.89342  20548491.3104   20548493.0994   20548490.8084
      -825.8554       -643.5294
 -23437887.88843 -18213975.32942  21347483.0324   21347486.1654   21347482.1384
       293.8424        228.9604
  -4950587.92643  -3810619.69442  24588916.4224   24588920.5414   24588915.8634
      2780.9274       2166.9534
 -22058279.35243 -17138006.89542  21577633.0094   21577634.7954   21577632.3674
      2411.8534       1879.3624
 -11987779.24143  -9294557.07442  23683506.0504   23683509.7634   23683506.5934
      2223.8934       1732.8914
  -4936050.75643  -3776500.06942  24642879.6864   24642880.0914   24642877.8624
     -3820.4794      -2976.9964
 -14681805.71343 -11383645.89342  22429264.7414   22429266.2024   22429264.1394
     -2042.5614      -1591.6004
  -1899359.58143  -1423534.96442  25427156.4114   25427155.4304   25427155.5464
      3980.0904       3101.3684
 -12903142.46643 -10007290.83242  23259183.6574   23259187.5704   23259183.0864
      2968.2294       2312.8934
 -13284558.63043 -10345940.56042  21896934.8654   21896937.5424   21896934.6464
       500.4324        389.9414
 05  9 20  1 46 30.0000000  0 11G28G11G 1G25G20G 7G19G14G23G24G31
  -3981470.24143  -3092037.14842  25041065.2984   25041066.5674   25041064.2864
     -2608.9524      -2032.9424
 -27261219.24343 -21190948.98342  20553252.1884   20553253.2804   20553251.4094
      -842.1364       -656.2224
 -23446404.99743 -18220612.03442  21345862.0064   21345865.1954   21345861.4064
       273.6804        213.2504
  -5033909.04443  -3875545.22742  24573062.0074   24573066.4794   24573062.8794
      2773.5764       2161.2284
 -22130465.48043 -17194255.81842  21563896.6004   21563898.4694   21563895.9094
      2400.2664       1870.3324
 -12054305.20843  -9346395.49542  23670847.0894   23670848.8224   23670846.2974
      2210.7174       1722.6384
  -4821401.82543  -3687163.26442  24664695.0684   24664698.1764   24664693.9034
     -3823.2154      -2979.1304
 -14620284.60843 -11335707.37142  22440971.6604   22440973.1184   22440970.7524
     -2059.1734      -1604.5384
  -2018763.17943  -1516576.75042  25404435.0804   25404435.3274   25404433.2334
      3980.1474       3101.3974
 -12992104.46343 -10076611.85942  23242254.7894   23242258.5664   23242254.3814
      2962.1754       2308.2024
 -13299253.73643 -10357391.29142  21894139.1424   21894140.4314   21894137.8994
       478.8684        373.1384
 05  9 20  1 47  0.0000000  0 11G28G11G 1G25G20G 7G19G14G23G24G31
  -3903075.21343  -3030950.15642  25055981.7764   25055984.6154   25055981.9314
     -2617.1874      -2039.3784
 -27235717.40043 -21171077.42342  20558105.0394   20558106.2744   20558104.1274
      -858.1254       -668.6934
 -23454319.08643 -18226778.84642  21344355.7104   21344359.3944   21344355.2814
       253.7514        197.7004
  -5117006.88843  -3940296.73942  24557250.1864   24557252.7734   24557248.7334
      2766.1924       2155.4694
 -22202302.31243 -17250232.54942  21550226.7664   21550228.7174   21550225.9474
      2388.6164       1861.2414
 -12120426.68643  -9397918.72442  23658265.0444   23658267.0144   23658263.8274
      2197.1854       1712.0704
  -4706679.05943  -3597768.95042  24686527.3854   24686528.4564   24686526.1474
     -3825.8674      -2981.2054
 -14558270.54443 -11287384.72142  22452772.3754   22452774.6974   22452771.6984
     -2075.4434      -1617.2474
  -2138167.48743  -1609619.07242  25381712.8284   25381713.4364   25381711.0924
      3980.1154       3101.3904
 -13080886.86943 -10145792.95642  23225360.4734   23225364.5744   23225359.6394
      2956.3844       2303.6564
 -13313304.44143 -10368339.89642  21891464.0194   21891466.6304   21891463.2994
       457.5114        356.4744
 05  9 20  1 47 30.0000000  0 11G28G11G 1G25G20G 7G19G14G23G24G31
  -3824420.10243  -2969660.47742  25070950.3194   25070953.4934   25070949.5654
     -2625.6294      -2045.9354
 -27209729.03743 -21150826.75842  20563049.9564   20563051.5044   20563049.5204
      -874.1734       -681.1724
 -23461630.27343 -18232475.87042  21342964.5234   21342967.6494   21342964.1734
       233.9454        182.2954
  -5199878.11043  -4004871.66142  24541479.7604   24541483.1294   24541479.2964
      2758.7014       2149.6304
 -22273788.74843 -17305936.24542  21536623.0444   21536625.2884   21536622.2484
      2377.3304       1852.4604
 -12186141.86343  -9449125.35642  23645759.0004   23645761.6614   23645758.5974
      2184.1074       1701.9284
  -4591885.37243  -3508319.35242  24708371.8254   24708372.0504   24708370.3834
     -3827.0634      -2982.1324
 -14495765.70443 -11238679.64742  22464666.4324   22464668.3884   22464665.6044
     -2091.3524      -1629.6254
  -2257570.28043  -1702660.18542  25358991.4964   25358990.9454   25358990.9094
      3980.1534       3101.4214
 -13169488.25943 -10214832.98042  23208498.7924   23208502.9384   23208499.4514
      2950.6084       2299.1664
 -13326710.39043 -10378786.08842  21888912.9574   21888915.7664   21888912.4784
       436.2864        339.9404
 05  9 20  1 48  0.0000000  0 11G28G11G 1G25G20G 7G19G14G23G24G31
  -3745508.05343  -2908170.61942  25085966.5734   25085968.6584   25085964.4234
     -2635.9914      -2054.0184
 -27183254.31943 -21130197.11242  20568087.1674   20568089.2804   20568087.2474
      -891.5694       -694.7474
 -23468338.31244 -18237702.90642  21341688.6934   21341691.3594   21341687.6784
       212.6544        165.6914
  -5282519.76643  -4069267.71942  24525752.7874   24525756.3394   24525752.0814
      2749.8724       2142.7394
 -22344923.86743 -17361366.19642  21523086.3124   21523088.5654   21523085.4534
      2364.4444       1842.4024
 -12251448.45543  -9500013.61642  23633329.7794   23633333.9514   23633330.9104
      2169.2384       1690.3214
  -4477022.70343  -3418815.98542  24730229.3074   24730229.6954   24730227.3394
     -3830.8184      -2985.0644
 -14432772.14643 -11189593.75342  22476654.0834   22476655.9094   22476653.3144
     -2108.8294      -1643.2544
  -2376969.16943  -1795698.24842  25336269.3154   25336271.4704   25336268.7334
      3978.9724       3100.4984
 -13257906.85443 -10283730.58142  23191674.7754   23191677.7584   23191675.0404
      2943.4304       2293.5414
 -13339470.90843 -10388729.35642  21886485.3604   21886487.1054   21886485.0494
       413.5974        322.2574
 05  9 20  1 48 30.0000000  0 11G28G11G 1G25G20G 7G19G14G23G24G31
  -3666342.32943  -2846483.11642  25101032.3374   25101032.6084   25101029.7144
     -2643.3384      -2059.7404
 -27156293.79743 -21109188.91542  20573218.2054   20573220.0534   20573217.8724
      -907.1054       -706.8424
 -23474443.67543 -18242460.32342  21340526.4134   21340529.3824   21340525.6064
       193.2454        150.5644
  -5364929.27343  -4133482.90842  24510071.3964   24510074.5784   24510070.2244
      2742.6744       2137.1504
 -22415706.58443 -17416521.54142  21509616.9564   21509618.9204   21509615.8634
      2353.3184       1833.7474
 -12316344.79643  -9550582.18442  23620981.8034   23620984.9204   23620981.3374
      2156.1054       1680.0664
  -4362094.21443  -3329261.38042  24752099.9064   24752100.3254   24752098.3844
     -3832.6264      -2986.4604
 -14369292.58443 -11140129.16242  22488733.2714   22488734.8884   22488732.8474
     -2124.2884      -1655.3024
  -2496362.11543  -1888731.68142  25313550.1124   25313551.1144   25313548.8484
      3979.4434       3100.8594
 -13346141.39343 -10352484.76242  23174883.6964   23174887.1484   23174883.6884
      2937.8074       2289.1854
 -13351585.96743 -10398169.66042  21884179.5824   21884182.5094   21884179.2894
       392.8344        306.0874
 05  9 20  1 49  0.0000000  0 11G28G11G 1G25G20G 7G19G14G23G24G31
  -3586925.43743  -2784599.86842  25116141.8934   25116146.3854   25116141.7084
     -2651.8754      -2066.3914
 -27128847.48943 -21087802.18942  20578442.0494   20578442.7374   20578441.1194
      -923.1964       -719.3834
 -23479946.25343 -18246748.04342  21339478.9574   21339482.3954   21339478.6694
       173.1504        134.9174
  -5447103.79243  -4197514.97742  24494433.2824   24494436.4204   24494433.4184
      2734.8774       2131.0814
 -22486135.61243 -17471401.30242  21496214.5904   21496217.0814   21496213.9704
      2341.5544       1824.5824
 -12380828.61843  -9600829.32642  23608711.1334   23608714.6124   23608710.0494
      2142.3114       1669.2944
  -4247101.94943  -3239657.01042  24773982.7154   24773983.3504   24773981.8834
     -3834.2054      -2987.7014
 -14305328.87943 -11090287.31642  22500905.3634   22500906.5254   22500904.3304
     -2140.3624      -1667.8274
  -2615747.07743  -1981758.91142  25290833.0584   25290832.6104   25290831.1324
      3979.4254       3100.8534
 -13434190.20443 -10421094.22542  23158128.6384   23158131.7554   23158128.5234
      2931.5564       2284.3344
 -13363054.75543 -10407106.38342  21881997.0194   21882000.4444   21881996.9184
       371.2934        289.3084
 05  9 20  1 49 30.0000000  0 11G28G11G 1G25G20G 7G19G14G23G24G31
  -3507260.40243  -2722523.27342  25131301.2774   25131304.4874   25131303.0684
     -2661.0824      -2073.5754
 -27100916.14043 -21066037.50542  20583756.6304   20583758.0394   20583755.9534
      -940.1894       -732.6164
 -23484846.10243 -18250566.10042  21338546.7214   21338550.0294   21338546.5104
       152.3054        118.6794
  -5529040.59543  -4261361.79742  24478842.7054   24478845.3184   24478841.3334
      2726.2734       2124.3764
 -22556210.03443 -17526004.73642  21482879.6574   21482882.4714   21482879.1704
      2328.9464       1814.7624
 -12444897.84843  -9650753.39242  23596518.7444   23596522.7154   23596518.2344
      2127.7494       1658.0034
  -4132048.28343  -3150004.80842  24795877.1104   24795876.8354   24795875.8644
     -3837.0074      -2989.8814
 -14240883.09543 -11040069.81842  22513169.9674   22513170.8334   22513168.2224
     -2157.1164      -1680.8754
  -2735121.65543  -2074778.01942  25268116.6194   25268116.5154   25268115.5394
      3977.8864       3099.6504
 -13522051.84743 -10489557.82742  23141410.1634   23141413.4364   23141409.3604
      2924.6774       2278.9544
 -13373876.93243 -10415539.25042  21879937.5664   21879940.4114   21879937.0184
       349.0694        272.0024
 05  9 20  1 50  0.0000000  0 11G28G11G 1G25G20G 7G19G14G23G24G31
  -3427350.60943  -2660255.94042  25146510.2524   25146513.1324   25146509.5664
     -2667.8384      -2078.8314
 -27072499.48843 -21043894.66742  20589163.6914   20589165.5264   20589163.5694
      -955.4304       -744.4984
 -23489143.45643 -18253914.67842  21337728.8144   21337732.2974   21337728.3004
       133.0624        103.6774
  -5610737.12843  -4325021.39242  24463295.0574   24463298.5494   24463294.5614
      2719.0444       2118.7264
 -22625928.64143 -17580330.91242  21469613.0074   21469615.1454   21469612.0504
      2317.8464       1806.0994
 -12508550.78943  -9700353.08542  23584406.4824   23584409.6184   23584405.4694
      2114.6814       1647.8104
  -4016935.84443  -3060306.84742  24817781.6444   24817781.9044   24817780.7664
     -3837.7594      -2990.4654
 -14175957.80243 -10989478.67742  22525524.5654   22525525.2634   22525523.1454
     -2172.3194      -1692.7194
  -2854483.75843  -2167787.42642  25245402.2724   25245403.2584   25245401.2514
      3978.3084       3099.9854
 -13609724.63743 -10557874.27542  23124726.7984   23124729.4294   23124725.6024
      2919.2064       2274.7054
 -13384052.39943 -10423468.18442  21878001.8154   21878004.2924   21878001.2694
       328.3354        255.8324
 05  9 20  1 50 30.0000000  0 11G28G11G 1G25G20G 7G19G14G23G24G31
  -3347198.77543  -2597800.02242  25161761.9414   25161766.0394   25161762.3714
     -2676.3334      -2085.4544
 -27043598.49143 -21021374.41642  20594663.0184   20594665.0234   20594663.0944
      -971.8674       -757.2964
 -23492838.43543 -18256793.87842  21337025.6794   21337029.3754   21337025.2874
       112.6044         87.7464
  -5692190.41143  -4388491.43742  24447795.2984   24447797.9314   24447795.1224
      2710.7694       2112.2834
 -22695290.44443 -17634379.06242  21456413.8094   21456416.5124   21456413.1384
      2305.6174       1796.5884
 -12571785.43643  -9749626.84542  23572373.4984   23572376.0564   23572372.3794
      2100.2854       1636.5714
  -3901767.18343  -2970565.02642  24839698.2694   24839698.3694   24839695.7484
     -3840.2044      -2992.3694
 -14110555.09743 -10938515.52042  22537969.1894   22537971.3614   22537969.2964
     -2188.4994      -1705.3264
  -2973831.08243  -2260785.31542  25222691.9134   25222693.3684   25222691.9014
      3977.5914       3099.4224
 -13697207.12243 -10626042.44342  23108078.4204   23108081.8594   23108077.6064
      2912.3724       2269.3814
 -13393580.65743 -10430892.80142  21876188.8664   21876191.6224   21876188.1974
       306.3324        238.6904
 05  9 20  1 51  0.0000000  0 11G28G11G 1G25G20G 7G19G14G23G24G31
  -3266807.58843  -2535157.60542  25177060.0914   25177063.8364   25177059.3394
     -2682.5574      -2090.2944
 -27014213.47643 -20998477.00442  20600255.3904   20600256.9204   20600254.9924
      -986.7484       -768.8944
 -23495931.17544 -18259203.79642  21336437.4884   21336440.3114   21336437.0064
        93.8034         73.0984
  -5773397.63743  -4451769.77242  24432340.2554   24432345.2244   24432340.9004
      2703.8004       2106.8634
 -22764294.09843 -17688148.13842  21443282.7814   21443285.5184   21443282.2894
      2294.8544       1788.2024
 -12634599.59843  -9798572.94142  23560420.7864   23560423.6814   23560420.1674
      2087.4434       1626.5904
  -3786544.47543  -2880781.15642  24861623.3604   24861624.6814   24861621.8714
     -3840.8214      -2992.8454
 -14044677.36843 -10887182.22842  22550505.4994   22550507.4534   22550505.6764
     -2203.0324      -1716.6234
  -3093161.21843  -2353769.80242  25199983.7274   25199983.7224   25199982.1114
      3978.1234       3099.8404
 -13784497.68443 -10694061.04442  23091467.5664   23091471.4364   23091466.9614
      2907.0954       2265.2834
 -13402461.45243 -10437812.90042  21874498.2334   21874500.6314   21874498.2614
       285.9774        222.8484
 05  9 20  1 51 30.0000000  0 11G28G11G 1G25G20G 7G19G14G23G24G31
  -3186180.22643  -2472331.14442  25192404.1634   25192404.4514   25192404.1984
     -2691.9814      -2097.6544
 -26984344.88343 -20975202.77942  20605938.9754   20605940.6364   20605938.4944
     -1004.1934       -782.5124
 -23498422.04043 -18261144.72242  21335963.4794   21335966.5144   21335962.9634
        72.4944         56.4664
  -5854355.95043  -4514854.10342  24416936.0044   24416938.7914   24416936.7054
      2694.0124       2099.2224
 -22832938.85343 -17741637.54142  21430220.1014   21430222.7424   21430219.1184
      2281.7004       1777.9274
 -12696991.39343  -9847189.91942  23548547.7624   23548550.1534   23548546.8294
      2072.1934       1614.6764
  -3671270.44243  -2790957.24942  24883559.1274   24883560.2734   24883557.0364
     -3843.6404      -2995.0474
 -13978327.07643 -10835480.70342  22563132.0584   22563133.9064   22563131.1984
     -2219.9484      -1729.8634
  -3212472.21143  -2446739.39742  25177279.2704   25177280.0894   25177279.3544
      3976.4444       3098.5264
 -13871594.83743 -10761928.94842  23074894.2194   23074897.0554   23074893.7144
      2899.3604       2259.1994
 -13410694.52743 -10444228.28542  21872931.3334   21872934.2904   21872930.9934
       263.1744        205.0384
 05  9 20  1 52  0.0000000  0 11G28G11G 1G25G20G 7G19G14G23G24G31
  -3105319.95443  -2409323.19042  25207790.4964   25207791.0564   25207788.8474
     -2698.8574      -2103.0244
 -26953993.05743 -20951552.01342  20611714.9064   20611716.4564   20611714.4774
     -1019.7464       -794.6004
 -23500311.15044 -18262616.75042  21335603.8804   21335607.2024   21335603.3824
        52.9874         41.2964
  -5935062.45943  -4577742.26142  24401577.6184   24401582.3234   24401577.3424
      2685.9594       2092.9634
 -22901223.74543 -17794846.54442  21417226.3014   21417228.2174   21417225.3804
      2270.2974       1769.0694
 -12758959.03343  -9895476.39542  23536756.3064   23536758.4164   23536754.0524
      2058.8094       1604.2534
  -3555947.28943  -2701095.06642  24905504.3134   24905505.5394   24905502.1504
     -3844.6874      -2995.8604
 -13911506.43243 -10783412.66942  22575847.3824   22575848.9654   22575845.8594
     -2235.0054      -1741.5494
  -3331761.86043  -2539692.35542  25154579.6044   25154577.5804   25154578.2174
      3975.9974       3098.1814
 -13958496.54043 -10829644.56142  23058356.3944   23058361.5044   23058355.8554
      2893.5324       2254.6954
 -13418279.59543 -10450138.73542  21871488.9374   21871490.5284   21871488.5404
       242.0664        188.6284
 05  9 20  1 52 30.0000000  0 11G28G11G 1G25G20G 7G19G14G23G24G31
  -3024229.32743  -2346135.73942  25223220.8574   25223224.1374   25223220.2034
     -2706.3084      -2108.8084
 -26923158.47943 -20927525.07542  20617582.5324   20617584.2784   20617582.3514
     -1035.8434       -807.1474
 -23501598.61443 -18263619.96642  21335358.5294   21335361.7794   21335358.2864
        32.9154         25.6534
  -6015514.38943  -4640432.03142  24386269.2034   24386270.8684   24386267.9254
      2677.4244       2086.3054
 -22969147.38443 -17847774.04342  21404299.9674   21404302.8614   21404299.3454
      2258.1214       1759.5794
 -12820500.39743  -9943430.70042  23525045.2824   23525048.3424   23525043.4514
      2044.3034       1592.9714
  -3440577.55443  -2611196.57042  24927457.8754   24927459.9294   24927457.0424
     -3846.2374      -2997.0684
 -13844217.53143 -10730979.75542  22588651.4124   22588654.2424   22588651.1404
     -2250.6564      -1753.7594
  -3451027.75443  -2632626.80542  25131882.3004   25131883.1814   25131880.7114
      3974.8094       3097.2394
 -14045201.25643 -10897206.66942  23041858.0074   23041861.0634   23041857.1034
      2886.9934       2249.6224
 -13425216.27143 -10455543.93942  21870168.4754   21870170.7174   21870167.5914
       220.4714        171.8024
 05  9 20  1 53  0.0000000  0 11G28G11G 1G25G20G 7G19G14G23G24G31
  -2942911.49843  -2282771.26142  25238696.3914   25238697.0024   25238697.2334
     -2713.9774      -2114.7814
 -26891841.58643 -20903122.31042  20623542.1274   20623543.4904   20623541.4674
     -1051.7504       -819.5484
 -23502284.72743 -18264154.59042  21335228.3314   21335231.3014   21335227.9114
        13.0434         10.1714
  -6095708.77543  -4702921.15342  24371007.7924   24371010.5574   24371007.7364
      2668.9894       2079.7384
 -23036708.52343 -17900419.08142  21391443.9094   21391446.4134   21391443.2324
      2246.1634       1750.2624
 -12881613.61343  -9991051.38442  23513414.4164   23513418.8124   23513414.3014
      2030.1554       1581.9534
  -3325163.47643  -2521263.61042  24949420.2964   24949421.9924   24949419.8754
     -3847.6144      -2998.1454
 -13776462.91043 -10678183.94542  22601544.5574   22601546.5464   22601544.5164
     -2266.0774      -1765.7414
  -3570267.86843  -2725541.13642  25109192.8604   25109193.0994   25109191.4084
      3974.4914       3097.0054
 -14131707.61743 -10964614.21542  23025395.4244   23025398.4704   23025395.1574
      2880.3764       2244.4584
 -13431504.27243 -10460443.68042  21868971.8904   21868973.7464   21868971.7644
       198.9054        154.9964
 05  9 20  1 53 30.0000000  0 11G28G11G 1G25G20G 7G19G14G23G24G31
  -2861369.45343  -2219232.03542  25254213.9774   25254215.3734   25254213.5994
     -2722.0844      -2121.1134
 -26860042.92743 -20878344.13942  20629593.1654   20629594.5674   20629592.7194
     -1068.0594       -832.2554
 -23502369.92443 -18264220.97242  21335211.8944   21335215.0294   21335211.4664
        -7.1664         -5.5884
  -6175643.03643  -4765207.56242  24355797.6254   24355799.1054   24355797.3704
      2660.1924       2072.8714
 -23103906.40343 -17952781.04842  21378656.4934   21378658.9654   21378655.8584
      2233.8664       1740.6804
 -12942296.69843 -10038336.91242  23501867.7464   23501870.4354   23501866.4644
      2015.5834       1570.5944
  -3209707.61043  -2431298.02742  24971391.3764   24971393.9184   24971390.5174
     -3848.9164      -2999.1524
 -13708244.62343 -10625026.83442  22614526.9374   22614529.0534   22614525.8784
     -2281.7104      -1777.9424
  -3689479.77543  -2818433.48242  25086506.5164   25086507.9434   25086506.7164
      3973.0894       3095.9044
 -14218014.05043 -11031865.97242  23008971.7164   23008975.2524   23008971.2384
      2873.5884       2239.1444
 -13437143.69743 -10464838.04742  21867898.6914   21867900.8704   21867897.6744
       177.1234        138.0074
 05  9 20  1 54  0.0000000  0 11G28G11G 1G25G20G 7G19G14G23G24G31
  -2779605.95343  -2155520.25942  25269771.4744   25269774.0404   25269768.9594
     -2728.9754      -2126.4834
 -26827762.76343 -20853190.76942  20635735.6184   20635737.2774   20635735.1734
     -1084.1294       -844.7684
 -23501854.51744 -18263819.34742  21335310.1984   21335312.8464   21335309.6224
       -27.3184        -21.2844
  -6255314.32843  -4827289.03342  24340635.9174   24340639.0264   24340635.1324
      2651.1934       2065.8754
 -23170740.22243 -18004859.34442  21365939.1914   21365940.7614   21365937.9284
      2221.6674       1731.1774
 -13002547.94943 -10085285.95042  23490402.7504   23490405.6254   23490401.3094
      2001.1084       1559.3104
  -3094212.52043  -2341301.86142  24993368.4074   24993370.3214   24993368.3464
     -3850.4214      -3000.3314
 -13639565.66143 -10571510.76042  22627595.7844   22627597.4554   22627595.0554
     -2297.1424      -1789.9834
  -3808661.24943  -2911302.12142  25063827.2784   25063827.7394   25063826.7634
      3972.2474       3095.2524
 -14304118.99043 -11098960.73442  22992586.6554   22992589.8424   22992587.1254
      2866.6964       2233.8074
 -13442134.34443 -10468726.86642  21866948.8254   21866951.4484   21866948.8964
       155.4134        121.1044
 05  9 20  1 54 30.0000000  0 11G28G11G 1G25G20G 7G19G14G23G24G31
  -2697623.93743  -2091638.21042  25285373.3114   25285374.8164   25285372.0964
     -2736.2034      -2132.1124
 -26795001.75043 -20827662.71242  20641969.9354   20641971.6694   20641969.6494
     -1099.8944       -857.0634
 -23500738.67944 -18262949.86142  21335523.2054   21335525.5984   21335522.1464
       -47.0964        -36.6934
  -6334719.44043  -4889163.10642  24325526.7784   24325528.4994   24325526.0294
      2642.4654       2059.0564
 -23237208.63143 -18056652.90442  21353289.3794   21353292.5354   21353288.9724
      2209.6314       1721.7924
 -13062365.09843 -10131896.70342  23479018.4584   23479022.2674   23479017.5724
      1986.7774       1548.1094
  -2978680.51843  -2251276.93642  25015354.6904   25015355.6244   25015352.8544
     -3851.5244      -3001.1784
 -13570427.67343 -10517637.00342  22640752.5234   22640754.1424   22640752.1854
     -2312.0854      -1801.6254
  -3927809.93043  -3004145.21842  25041153.9954   25041155.0704   25041153.8934
      3971.6234       3094.7774
 -14390020.44443 -11165896.91342  22976239.9634   22976243.7824   22976239.8124
      2859.9414       2228.5284
 -13446476.00843 -10472109.98342  21866122.9184   21866125.5344   21866122.4024
       134.0604        104.4654
 05  9 20  1 55  0.0000000  0 10G11G 1G25G20G 7G19G14G23G24G31
 -26761760.46243 -20801760.41642  20648295.7624   20648297.3544   20648295.1194
     -1116.8594       -870.2834
 -23499022.92444 -18261612.90342  21335848.9444   21335851.9684   21335848.5854
       -67.7484        -52.7844
  -6413856.20243  -4950828.05542  24310465.9924   24310469.3184   24310464.8564
      2632.8024       2051.5174
 -23303310.75843 -18108161.05042  21340711.1074   21340713.5844   21340710.4024
      2196.6344       1711.6704
 -13121746.57543 -10178167.98442  23467719.6214   23467723.1694   23467718.5314
      1971.3814       1536.1494
  -2863114.14943  -2161225.22642  25037344.6484   25037348.5884   25037343.1944
     -3853.4194      -3002.6624
 -13500833.25943 -10463407.58442  22653995.6664   22653996.6574   22653994.6374
     -2328.1634      -1814.1674
  -4046923.86643  -3096961.20242  25018485.7944   25018489.4134   25018486.8934
      3969.0384       3092.7504
 -14475717.27843 -11232673.66842  22959932.3424   22959935.8074   22959932.5114
      2852.5444       2222.7564
 -13450168.57543 -10474987.31142  21865419.4804   21865422.4574   21865419.1054
       111.6574         86.9984
 05  9 20  1 55 30.0000000  0 10G11G 1G25G20G 7G19G14G23G24G31
 -26728039.31143 -20775484.20042  20654712.5914   20654714.1024   20654712.1284
     -1132.2544       -882.2794
 -23496707.34844 -18259808.55242  21336289.8994   21336292.4024   21336289.0494
       -87.4334        -68.1284
  -6492721.51543  -5012281.51942  24295457.1314   24295461.7734   24295457.6914
      2624.0234       2044.6834
 -23369045.19943 -18159382.68642  21328202.0784   21328204.4934   21328201.7114
      2184.7484       1702.4024
 -13180690.35743 -10224098.20942  23456503.4024   23456505.1494   23456502.8684
      1957.1144       1525.0214
  -2747515.74643  -2071148.58642  25059343.2644   25059345.0124   25059342.2324
     -3853.8854      -3003.0314
 -13430784.92743 -10408824.47342  22667324.9584   22667326.9694   22667325.1294
     -2342.6814      -1825.4714
  -4166000.65943  -3189748.26142  24995828.6004   24995829.9654   24995827.8364
      3968.2124       3092.1184
 -14561207.50743 -11299289.42642  22943663.9934   22943667.2704   22943663.3764
      2845.9434       2217.6044
 -13453211.86443 -10477358.69842  21864840.2444   21864843.7434   21864839.8494
        90.3664         70.4094
 05  9 20  1 56  0.0000000  0 10G11G 1G25G20G 7G19G14G23G24G31
 -26693839.06343 -20748834.66042  20661220.7194   20661222.3634   20661220.2094
     -1147.8294       -894.4154
 -23493792.65943 -18257537.35742  21336844.0044   21336847.2754   21336843.9714
      -106.9734        -83.3584
  -6571312.78543  -5073521.46442  24280503.3004   24280505.7014   24280502.8234
      2615.2404       2037.8524
 -23434411.31843 -18210317.32142  21315763.7874   21315765.9544   21315763.1354
      2172.9764       1693.2244
 -13239194.58343 -10269685.92142  23445369.5484   23445372.0894   23445369.0044
      1942.6964       1513.7894
  -2631887.93743  -1981049.00342  25081347.0604   25081348.3684   25081345.6534
     -3854.4114      -3003.4354
 -13360285.06243 -10353889.51242  22680740.5974   22680743.0764   22680740.0564
     -2357.2724      -1836.8194
  -4285038.23743  -3282504.80842  24973175.8884   24973175.6814   24973175.0154
      3967.4514       3091.5194
 -14646489.76443 -11365743.13242  22927435.9534   22927439.8324   22927435.2424
      2839.4964       2212.5994
 -13455605.94843 -10479224.22242  21864385.6034   21864388.0034   21864384.6724
        69.0774         53.8204
 05  9 20  1 56 30.0000000  0 10G11G 1G25G20G 7G19G14G23G24G31
 -26659159.91943 -20721811.95842  20667819.9174   20667821.3864   20667819.4524
     -1163.9274       -906.9664
 -23490279.08443 -18254799.50142  21337512.8254   21337515.9264   21337512.3554
      -127.1214        -99.0604
  -6649627.22543  -5134545.67242  24265600.9174   24265603.6144   24265599.3684
      2605.8174       2030.4954
 -23499407.86843 -18260963.97542  21303395.7014   21303397.3144   21303394.4464
      2160.3964       1683.4164
 -13297257.39343 -10314929.66842  23434320.3204   23434324.5164   23434320.1324
      1928.2084       1502.5024
  -2516232.52343  -1890927.94142  25103356.1494   25103356.3304   25103354.8814
     -3855.5774      -3004.3464
 -13289335.77643 -10298604.34642  22694242.1754   22694244.7104   22694242.1014
     -2372.3514      -1848.6134
  -4404033.97243  -3375228.72342  24950531.1274   24950532.5504   24950531.0794
      3965.9444       3090.3464
 -14731562.35443 -11432033.44142  22911246.5174   22911250.8984   22911246.2924
      2832.2744       2206.9874
 -13457350.58343 -10480583.68242  21864053.6384   21864056.0314   21864053.1964
        47.3804         36.9134
 05  9 20  1 57  0.0000000  0 10G11G 1G25G20G 7G19G14G23G24G31
 -26624002.59743 -20694416.64942  20674509.7544   20674511.6004   20674509.5794
     -1179.8764       -919.3794
 -23486167.09443 -18251595.34742  21338295.1584   21338298.3644   21338294.7914
      -147.0044       -114.5444
  -6727662.12643  -5195352.03842  24250750.6374   24250754.2894   24250749.6334
      2596.7934       2023.4884
 -23564034.27143 -18311322.20442  21291097.1564   21291099.4764   21291096.3364
      2148.0644       1673.8294
 -13354876.83643 -10359827.93042  23423356.5294   23423358.9754   23423355.2924
      1913.0924       1490.6944
  -2400552.32843  -1800787.52942  25125369.1284   25125370.8934   25125367.2534
     -3856.1774      -3004.8064
 -13217939.82543 -10242971.13042  22707828.1944   22707830.2964   22707828.3514
     -2387.3474      -1860.2674
  -4522985.84643  -3467918.44142  24927895.1774   24927896.5624   24927894.5664
      3964.4794       3089.2034
 -14816423.76843 -11498159.22142  22895098.6714   22895102.4664   22895098.7074
      2825.2764       2201.5234
 -13458446.09343 -10481437.32142  21863844.2034   21863848.1094   21863843.9684
        25.7464         20.0734
 05  9 20  1 57 30.0000000  0 10G11G 1G25G20G 7G19G14G23G24G31
 -26588367.89343 -20666649.35242  20681291.2514   20681292.7884   20681290.6354
     -1196.0264       -931.9754
 -23481457.17443 -18247925.27142  21339191.4204   21339194.5114   21339191.1794
      -167.1654       -130.2664
  -6805414.73143  -5255938.43542  24235954.4404   24235958.2284   24235954.5824
      2586.7594       2015.6484
 -23628289.03743 -18361390.84642  21278870.1024   21278872.1444   21278869.2144
      2135.3304       1663.8834
 -13412051.38843 -10404379.53642  23412475.5644   23412478.4954   23412474.4294
      1898.0534       1478.9844
  -2284849.83543  -1710629.79842  25147385.9884   25147387.9824   25147384.4904
     -3857.6134      -3005.9234
 -13146099.48543 -10186991.64442  22721499.8144   22721501.3304   22721498.4044
     -2402.3284      -1871.9524
  -4641891.67843  -3560572.31942  24905267.7954   24905269.7224   24905267.6754
      3962.8194       3087.9134
 -14901072.21943 -11564119.05842  22878990.6864   22878994.0934   22878989.9554
      2817.8504       2195.7194
 -13458892.57243 -10481785.23242  21863759.9254   21863762.9434   21863759.9094
         3.7584          2.9164
 05  9 20  1 58  0.0000000  0 10G11G 1G25G20G 7G19G14G23G24G31
 -26552256.32943 -20638510.48042  20688162.9284   20688164.2784   20688162.3314
     -1211.8454       -944.3004
 -23476149.74043 -18243789.60642  21340201.4734   21340204.7744   21340200.9224
      -187.1094       -145.8094
  -6882882.15843  -5316302.63842  24221213.5104   24221216.3344   24221212.8554
      2577.0784       2008.0914
 -23692171.19943 -18411169.14842  21266713.6354   21266715.8004   21266712.8184
      2122.9564       1654.2404
 -13468778.90743 -10448582.79142  23401681.7414   23401684.7044   23401681.0024
      1883.3044       1467.5274
  -2169127.53143  -1620456.59342  25169408.3504   25169407.7854   25169407.0614
     -3857.9044      -3006.1554
 -13073816.84843 -10130667.51042  22735254.0014   22735256.0614   22735253.6064
     -2416.9914      -1883.3734
  -4760749.12243  -3653188.45842  24882651.9194   24882652.0704   24882650.8534
      3960.8474       3086.3714
 -14985506.12843 -11629911.70442  22862923.0854   22862927.0264   22862922.1004
      2810.5854       2190.0664
 -13458689.98543 -10481627.37542  21863798.5714   21863801.1564   21863797.4074
       -17.8654        -13.9214
 05  9 20  1 58 30.0000000  0 10G11G 1G25G20G 7G19G14G23G24G31
 -26515668.34843 -20610000.36842  20695125.8074   20695127.3754   20695125.0154
     -1227.5514       -956.5384
 -23470245.52443 -18239188.91042  21341325.4154   21341328.3514   21341324.8074
      -206.7054       -161.0744
  -6960061.74643  -5376442.55142  24206526.4944   24206529.1664   24206526.1264
      2567.7084       2000.8104
 -23755680.03743 -18460656.55142  21254628.2684   21254630.4294   21254627.5504
      2110.7814       1644.7604
 -13525057.71443 -10492436.41142  23390971.7124   23390974.5244   23390970.4054
      1868.4824       1455.9674
  -2053387.51543  -1530269.51242  25191431.5374   25191434.8704   25191430.7784
     -3858.1354      -3006.3484
 -13001094.55843 -10074000.79242  22749092.2514   22749094.8164   22749091.6164
     -2431.2884      -1894.5184
  -4879555.87043  -3745765.09542  24860042.1704   24860043.0814   24860042.0634
      3959.6694       3085.4474
 -15069723.85343 -11695535.89242  22846896.4404   22846900.6314   22846896.5584
      2803.7094       2184.7114
 -13457838.44943 -10480963.84542  21863960.3744   21863963.0164   21863960.2064
       -39.1164        -30.4734
 05  9 20  1 59  0.0000000  0 10G11G 1G25G20G 7G19G14G23G24G31
 -26478604.42543 -20581119.39942  20702178.6054   20702180.0054   20702177.9514
     -1244.3254       -969.6184
 -23463745.00644 -18234123.56542  21342562.5744   21342565.0814   21342561.8274
      -227.4774       -177.2664
  -7036950.82043  -5436356.07742  24191896.9724   24191898.1644   24191894.4284
      2556.7594       1992.2714
 -23818814.42643 -18509852.16342  21242614.4544   21242616.4924   21242613.5334
      2097.3924       1634.3194
 -13580886.11043 -10535939.06442  23380347.5704   23380349.7554   23380347.1954
      1852.3544       1443.3754
  -1937632.25543  -1440070.66842  25213458.5654   25213460.6694   25213458.2304
     -3859.5074      -3007.4064
 -12927935.13243 -10016993.44742  22763014.3674   22763017.3514   22763014.4034
     -2446.5164      -1906.3774
  -4998309.66043  -3838300.50942  24837445.1624   24837444.0744   24837444.1514
      3956.7564       3083.1964
 -15153723.73643 -11760990.34742  22830912.1434   22830915.1904   22830912.0934
      2795.5464       2178.3184
 -13456337.85443 -10479794.55242  21864246.2884   21864248.3904   21864245.8724
       -61.6684        -48.0644
 05  9 20  1 59 30.0000000  0 10G11G 1G25G20G 7G19G14G23G24G31
 -26441065.68143 -20551868.43742  20709321.7824   20709323.3014   20709321.6894
     -1258.6044       -980.7314
 -23456648.77643 -18228594.02842  21343912.4264   21343915.6414   21343911.8434
      -245.7884       -191.5264
  -7113546.45143  -5496040.94542  24177319.6464   24177322.1814   24177318.7084
      2549.0414       1986.2684
 -23881573.32743 -18558755.19142  21230671.5764   21230673.9784   21230670.6864
      2086.2944       1625.6824
 -13636262.13843 -10579089.21442  23369810.2154   23369813.3024   23369809.9594
      1838.9744       1432.9694
  -1821864.35743  -1349861.93442  25235489.3604   25235491.3194   25235487.5364
     -3858.8874      -3006.9284
 -12854341.02143  -9959647.38442  22777019.8314   22777020.7094   22777017.7174
     -2459.8654      -1916.7794
  -5117008.34643  -3930792.92142  24814858.3244   24814858.3004   24814857.2964
      3956.4974       3082.9834
 -15237504.39243 -11826273.96942  22814969.4504   22814973.3544   22814969.1504
      2789.3874       2173.5594
 -13454188.38843 -10478119.65342  21864654.6644   21864657.8544   21864654.9254
       -81.8924        -63.8064
 05  9 20  2  0  0.0000000  0 10G11G 1G25G20G 7G19G14G23G24G31
 -26403052.33543 -20522247.65342  20716555.2864   20716557.3204   20716555.0604
     -1275.5364       -993.9314
 -23448957.24043 -18222600.62042  21345375.8984   21345379.2364   21345375.3254
      -266.8724       -207.9474
  -7189845.78443  -5555494.96342  24162800.6834   24162804.0434   24162799.2934
      2537.5894       1977.3424
 -23943955.65243 -18607364.78842  21218800.4344   21218802.9844   21218799.7744
      2072.5574       1614.9804
 -13691184.02843 -10621885.49142  23359358.1994   23359361.8324   23359357.6184
      1822.4744       1420.1224
  -1706086.02143  -1259645.06342  25257520.2864   25257523.0414   25257519.8034
     -3860.4264      -3008.1234
 -12780314.58243  -9901964.44642  22791105.9574   22791107.5764   22791105.4514
     -2475.2524      -1928.7584
  -5235649.69743  -4023240.68842  24792281.9124   24792280.4884   24792280.8634
      3952.9354       3080.2124
 -15321063.86343 -11891385.23942  22799068.7684   22799072.1414   22799068.0874
      2781.1664       2167.1334
 -13451390.24043 -10475939.27342  21865187.4034   21865189.6784   21865187.0614
      -104.6354        -81.5164
 05  9 20  2  0 30.0000000  0 10G11G 1G25G20G 7G19G14G23G24G31
 -26364565.22943 -20492257.70642  20723878.8594   20723880.9454   20723878.8664
     -1290.3114      -1005.4354
 -23440670.90643 -18216143.73342  21346953.2734   21346956.0734   21346952.4734
      -285.4454       -222.4234
  -7265846.54943  -5614716.30342  24148337.7124   24148341.0294   24148337.4064
      2528.8834       1970.5624
 -24005960.51743 -18655680.26442  21207001.5184   21207003.4204   21207000.6864
      2061.1164       1606.0614
 -13745650.10743 -10664326.60542  23348993.8754   23348997.4744   23348993.9094
      1808.3724       1409.1294
  -1590299.61843  -1169421.94942  25279554.3154   25279556.4144   25279554.2654
     -3858.9774      -3006.9954
 -12705858.26643  -9843946.53242  22805273.8444   22805276.6154   22805273.4764
     -2488.4944      -1939.0934
  -5354231.30443  -4115641.90142  24769715.5814   24769716.2294   24769715.1214
      3952.0494       3079.5194
 -15404400.58443 -11956322.94842  22783209.3984   22783212.9304   22783209.1994
      2774.7344       2162.1354
 -13447943.59243 -10473253.57842  21865843.7194   21865846.2214   21865842.7634
      -125.2664        -97.6124
 05  9 20  2  1  0.0000000  0 10G11G 1G25G20G 7G19G14G23G24G31
 -26325604.79443 -20461898.93242  20731293.2194   20731294.7934   20731292.6704
     -1306.0354      -1017.6974
 -23431790.40144 -18209223.84742  21348643.1514   21348645.6084   21348642.2314
      -305.4384       -238.0154
  -7341545.87643  -5673702.75942  24133932.1594   24133935.9084   24133931.9944
      2518.7004       1962.5944
 -24067587.10743 -18703700.97742  21195274.6354   21195276.4144   21195273.6244
      2048.4284       1596.1654
 -13799658.47443 -10706411.04342  23338717.6144   23338719.8504   23338715.5404
      1793.0684       1397.1774
  -1474507.61443  -1079194.39042  25301587.9884   25301591.2444   25301588.5964
     -3859.2184      -3007.1954
 -12630974.59343  -9785595.61842  22819523.6914   22819526.2034   22819522.8774
     -2502.8374      -1950.2704
  -5472751.03343  -4207994.91642  24747162.1624   24747162.7384   24747162.0184
      3950.0644       3077.9734
 -15487512.83043 -12021085.72642  22767393.8444   22767398.3634   22767394.0894
      2767.1284       2156.1854
 -13443848.77143 -10470062.81142  21866622.6714   21866625.2414   21866622.6224
      -146.7994       -114.3844
 05  9 20  2  1 30.0000000  0 10G11G 1G25G20G 7G19G14G23G24G31
 -26286172.21144 -20431172.25142  20738797.6664   20738799.0404   20738796.8524
     -1322.4884      -1030.5204
 -23422316.60143 -18201841.66642  21350445.3314   21350448.6984   21350445.2344
      -325.6594       -253.7574
  -7416941.13043  -5732452.25542  24119584.3044   24119587.8574   24119583.3694
      2507.8754       1954.1704
 -24128834.15643 -18751425.94342  21183619.4024   21183621.5044   21183618.4654
      2035.1904       1585.8644
 -13853207.54943 -10748137.59642  23328526.7944   23328530.2294   23328526.4544
      1777.2334       1384.8354
  -1358712.44743   -988964.38442  25323623.3244   25323624.9084   25323623.7104
     -3859.9714      -3007.7624
 -12555666.01343  -9726913.60742  22833854.7684   22833855.7174   22833854.7874
     -2517.4484      -1961.6454
  -5591206.52443  -4300297.86542  24724620.0074   24724620.6404   24724619.9954
      3947.5554       3076.0224
 -15570398.96143 -12085672.31442  22751621.4474   22751625.4054   22751621.2994
      2759.0054       2149.8704
 -13439106.18743 -10466367.29842  21867525.3814   21867527.4724   21867524.6744
      -169.0694       -131.7444
